Concelho,Nome_Entidade,Frequência [MHz],PAR [W],Raio [Km],Morada_Estação,Local_Estação,PS,PI,AF,Cobertura,Microcobertura,Desc_Operador,Latitude PlaGE,Longitude PlaGE,Latitude Corrigida,Longitude Corrigida,Coord Corrig.,Distrito,Concelho,Freguesia
Abrantes,"Média On Comunicação Social, Lda.",     96.700000,2000.000,47.0828907919883,AV. DEFENSORES DE CHAVES,ABRANTES,ANTLIVRE,807F,N,Local,Não,,39.463333333,-8.203333333,39.463333333,-8.203333333,Não,Santarém,Abrantes,Abrantes (São Vicente e São João) e Alferrarede
Águeda,"Sons de Botaréu - Actividade de Rádio, Unipessoal, Lda.",    100.000000,1000.000,39.5918340867651,PRÉSTIMO,Cabeço Cão,BOTAREU,84A0,S,Local,Não,,40.623333333,-8.314444444,40.624444444,-8.314722222,Sim,Aveiro,Águeda,Préstimo e Macieira de Alcoba
Águeda,"Sons de Botaréu - Actividade de Rádio, Unipessoal, Lda.",    101.800000,50.000,18.721822436302,"PRAÇA DO MUNICÍPIO, BL. 6 - 8 - 4º",ÁGUEDA,BOTAREU,84A0,S,Local,Sim,,40.576944444,-8.445,40.575277778,-8.445833333,Sim,Aveiro,Águeda,Águeda e Borralha
Águeda,"Rádio Soberania, Empresa de Radiodifusão, Lda.",     99.300000,2000.000,47.0828907919883,PRÉSTIMO,Cabeço Cão,SOBRANIA,80DA,N,Local,Não,,40.624444444,-8.314722222,40.624444444,-8.314722222,Não,Aveiro,Águeda,Préstimo e Macieira de Alcoba
Albufeira,"R.T.A. - Sociedade de Radiodifusão e Telecomunicações de Albufeira, Unipessoal, Lda.",    101.200000,50.000,18.721822436302,CERRO DE ÁGUIA,ALBUFEIRA,KISS FM,8444.000,S,Local,Sim,,37.093611111,-8.269444444,37.092222222,-8.270555556,Sim,Faro,Albufeira,Albufeira e Olhos de Água
Albufeira,"S.R.A. - Sociedade de Radiodifusão de Albufeira, Lda.",     94.000000,1000.000,39.5918340867651,PATIO-CERRO DA AGUIA,ALBUFEIRA,SOLAR FM,80D2,N,Local,Não,,37.091666667,-8.270833333,37.092222222,-8.270555556,Sim,Faro,Albufeira,Albufeira e Olhos de Água
Alcácer do Sal,"DialogoHabil, Unipessoal, Lda.",     93.900000,2000.000,47.0828907919883,SANTA SUSANA,Barrancão,TDS,80CA,N,Local,Não,,38.543333333,-8.369166667,38.543333333,-8.369166667,Não,Setúbal,Alcácer do Sal,Santa Maria do Castelo e Santiago e Santa Susana
Alcácer do Sal,"DialogoHabil, Unipessoal, Lda.",    104.700000,50.000,18.721822436302,DEPÓSITO DA ÁGUA - BAIRRO DA QUINTINHA,ALCÁCER DO SAL,TDS,80CA,N,Local,Sim,,38.358333333,-8.515555556,38.358333333,-8.515555556,Não,Setúbal,Alcácer do Sal,Santa Maria do Castelo e Santiago e Santa Susana
Alcanena,"Rádio Voz de Alcanena, Lda.",     99.300000,2000.000,47.0828907919883,,SERRA DE AIRE,CIDAD RI,8016.000,N,Local,Não,,39.5325,-8.642222222,39.5325,-8.642222222,Não,Santarém,Alcanena,Minde
Alcanena,"Cincup - Cooperativa de Informação e Cultura Porto Mós, C.R.L.",     98.500000,50.000,18.721822436302,SERRA SANTO ANTÓNIO,MIRA DE AIRE,DOM FUAS,842B,S,Local,Sim,,39.533333333,-8.733611111,39.533333333,-8.733611111,Não,Santarém,Alcanena,Serra de Santo António
Alcobaça,"BENEDITA FM - Produções Radiofónicas, Lda.",     88.100000,1000.000,39.5918340867651,SERRA DOS CANDEEIROS - CASAL DOS VENTOS,TURQUEL,BENEDITA,80ED,N,Local,Não,,39.471111111,-8.905277778,39.471111111,-8.905277778,Não,Leiria,Alcobaça,Turquel
Alcobaça,"Rádio Cister - Cooperativa Regional de Serviços Radiofónicos, C.R.L.",    102.500000,50.119,18.7329519924421,ESTRADA DO FACHO - DEPÓSITO DE ÁGUA S. M. ALCOBAÇA,SÃO MARTINHO DO PORTO,CFM,841A,S,Local,Sim,,39.500277778,-9.136388889,39.500277778,-9.136388889,Sim,Leiria,Alcobaça,São Martinho do Porto
Alcoutim,"Rádio e Televisão de Portugal, S.A.",     88.900000,299.999,29.3012111881995,Sitio Cerro Maria Castanha,ALCOUTIM,ANTENA 1,8201.000,S,Nacional,Não,Rede 1 de Cobertura Nacional,37.460277778,-7.4725,37.460277778,-7.4725,Sim,Faro,Alcoutim,Alcoutim e Pereiro
Alcoutim,"Rádio e Televisão de Portugal, S.A.",     91.500000,299.999,29.3012111881995,Sitio Cerro Maria Castanha,ALCOUTIM,ANTENA 2,8202.000,S,Nacional,Não,Rede 2 de Cobertura Nacional,37.460277778,-7.4725,37.460277778,-7.4725,Sim,Faro,Alcoutim,Alcoutim e Pereiro
Alcoutim,"Rádio e Televisão de Portugal, S.A.",    101.900000,299.999,29.3012111881995,Sitio Cerro Maria Castanha,ALCOUTIM,ANTENA 3,8204.000,S,Nacional,Não,Rede 3 de Cobertura Nacional,37.460277778,-7.4725,37.460277778,-7.4725,Sim,Faro,Alcoutim,Alcoutim e Pereiro
Alcoutim,"Rádio Clube de Alcoutim, Lda.",     94.400000,500.000,33.2926313568806,ROMEIRA - BALURCOS,ALCOUTIM,RCA-SUL,80DA,N,Local,Não,,37.4325,-7.538333333,37.4325,-7.538333333,Sim,Faro,Alcoutim,Alcoutim e Pereiro
Alenquer,"Rádio e Televisão de Portugal, S.A.",     98.300000,40000.001,99.568192068619,,SERRA DE MONTEJUNTO,ANTENA 1,8201.000,S,Nacional,Não,Rede 1 de Cobertura Nacional,39.170833333,-9.061666667,39.170833333,-9.061666667,Não,Lisboa,Alenquer,Abrigada e Cabanas de Torres
Alenquer,"Rádio e Televisão de Portugal, S.A.",     88.700000,40000.001,99.568192068619,,SERRA DE MONTEJUNTO,ANTENA 2,8202.000,S,Nacional,Não,Rede 2 de Cobertura Nacional,39.170833333,-9.061666667,39.170833333,-9.061666667,Não,Lisboa,Alenquer,Abrigada e Cabanas de Torres
Alenquer,"Rádio e Televisão de Portugal, S.A.",    105.200000,40000.001,99.568192068619,,SERRA DE MONTEJUNTO,ANTENA 3,8204.000,S,Nacional,Não,Rede 3 de Cobertura Nacional,39.170833333,-9.061666667,39.170833333,-9.061666667,Não,Lisboa,Alenquer,Abrigada e Cabanas de Torres
Alenquer,"Presépio de Portugal - Comunicação Social, Unipessoal, Lda.",     93.500000,500.000,33.2926313568806,SÃO JOÃO,SERRA DE MONTEJUNTO,ALENQUER,8436.000,S,Local,Não,,39.171666667,-9.060277778,39.171666667,-9.060277778,Não,Lisboa,Alenquer,Abrigada e Cabanas de Torres
Alenquer,"Presépio de Portugal - Comunicação Social, Unipessoal, Lda.",    100.600000,50.000,18.721822436302,CASAL DOS MELOS,SANTO ESTEVÃO,ALENQUER,8436.000,S,Local,Sim,,39.049444444,-9.019166667,39.049444444,-9.019166667,Não,Lisboa,Alenquer,Alenquer (Santo Estêvão e Triana)
Alenquer,"Narrativas & Melodias, Lda.",     94.200000,500.000,33.2926313568806,,SERRA DE MONTEJUNTO,+OESTE,80DD,N,Local,Não,,39.173611111,-9.060833333,39.173611111,-9.060833333,Não,Lisboa,Alenquer,Abrigada e Cabanas de Torres
Alenquer,"Rádio Comercial, S.A.",     99.800000,10000.000,70.4053433621716,,SERRA DE MONTEJUNTO,COMRCIAL,8203.000,S,Nacional,Não,Cobertura Nacional,39.173611111,-9.055833333,39.173611111,-9.055833333,Não,Lisboa,Alenquer,Abrigada e Cabanas de Torres
Alenquer,"Rádio Regional de Lisboa - Emissões de Radiodifusão, S.A.",     96.400000,10000.000,70.4053433621716,,MONTEJUNTO,M80,8332.000,S,Regional,Não,Cobertura Regional Sul,39.173611111,-9.055833333,39.173611111,-9.055833333,Não,Lisboa,Alenquer,Abrigada e Cabanas de Torres
Alenquer,"Rádio Renascença, Lda.",     90.200000,10000.000,70.4053433621716,,SERRA DE MONTEJUNTO,RR,8221.000,S,Nacional,Não,Rede 1 de Cobertura Nacional,39.173888889,-9.060833333,39.173888889,-9.060833333,Não,Lisboa,Alenquer,Abrigada e Cabanas de Torres
Alenquer,"Rádio Renascença, Lda.",    106.800000,10000.000,70.4053433621716,,SERRA DE MONTEJUNTO,RFM,8231.000,S,Nacional,Não,Rede 2 de Cobertura Nacional,39.170833333,-9.061666667,39.170833333,-9.061666667,Não,Lisboa,Alenquer,Abrigada e Cabanas de Torres
Alfândega da Fé,"RÁDIO NOTICIAS - Produções e Publicidade, S.A.",    103.200000,10000.000,70.4053433621716,,SERRA DE BORNES,TSF,8343.000,S,Regional,Não,Cobertura Regional Norte,41.433611111,-7.006666667,41.434722222,-7.006388889,Sim,Bragança,Alfândega da Fé,Sambade
Alfândega da Fé,"Rádio Comercial, S.A.",     91.900000,10000.000,70.4053433621716,,SERRA DE BORNES,COMRCIAL,8203.000,S,Nacional,Não,Cobertura Nacional,41.432777778,-7.006666667,41.434166667,-7.006666667,Sim,Bragança,Alfândega da Fé,Sambade
Alfândega da Fé,"Rádio Renascença, Lda.",     89.600000,10000.000,70.4053433621716,,SERRA DE BORNES,RR,8221.000,S,Nacional,Não,Rede 1 de Cobertura Nacional,41.433611111,-7.006666667,41.433611111,-7.006666667,Sim,Bragança,Alfândega da Fé,Sambade
Alfândega da Fé,"Rádio Renascença, Lda.",    101.100000,10000.000,70.4053433621716,,SERRA DE BORNES,RFM,8231.000,S,Nacional,Não,Rede 2 de Cobertura Nacional,41.433611111,-7.006666667,41.433611111,-7.006666667,Sim,Bragança,Alfândega da Fé,Sambade
Alijó,"RVE - Sociedade Radiofónica, Lda.",     90.100000,1000.000,39.5918340867651,VILA  CHÃ - ALIJÓ,CHÃ,SALSIANA,84FE,S,Local,Não,,41.3125,-7.464166667,41.3125,-7.464166667,Sim,Vila Real,Alijó,Vila Chã
Aljustrel,"TLA/Telefonia Local de Aljustrel - Cooperativa de Informação e Cultura, CRL",     92.600000,500.000,33.2926313568806,JUNTO AO MOINHO DOS CURRAIS VELHOS,ALJUSTREL,ALJUSTRL,80A1,N,Local,Não,,37.878888889,-8.1725,37.877222222,-8.170555556,Sim,Beja,Aljustrel,Aljustrel e Rio de Moinhos
Almada,"Rádio e Televisão de Portugal, S.A.",     99.400000,1000.000,39.5918340867651,MONTE DE CAPARICA,BANÁTICA,ANTENA 1,8201.000,S,Nacional,Não,Rede 1 de Cobertura Nacional,38.675277778,-9.186944444,38.675277778,-9.186944444,Não,Setúbal,Almada,Caparica e Trafaria
Almada,"Rádio e Televisão de Portugal, S.A.",     88.900000,299.999,29.3012111881995,MONTE DE CAPARICA,BANÁTICA,ANTENA 2,8202.000,S,Nacional,Não,Rede 2 de Cobertura Nacional,38.675277778,-9.186944444,38.675277778,-9.186944444,Não,Setúbal,Almada,Caparica e Trafaria
Almada,"Rádio e Televisão de Portugal, S.A.",    100.000000,299.916,29.2991843040347,MONTE DE CAPARICA,BANÁTICA,ANTENA 3,8204.000,S,Nacional,Não,Rede 3 de Cobertura Nacional,38.675277778,-9.186944444,38.675277778,-9.186944444,Sim,Setúbal,Almada,Caparica e Trafaria
Almada,"LUSOCANAL - Sociedade de Radiodifusão, Lda.",     97.800000,2000.000,47.0828907919883,ALMADA,MONTE DA CAPARICA,RADAR,8013.000,N,Local,Não,,38.676111111,-9.182777778,38.676111111,-9.182777778,Não,Setúbal,Almada,"Almada, Cova da Piedade, Pragal e Cacilhas"
Almada,"R. J. TV - Rádio Jornais e Televisão Meios Comunicação e Audiovisuais, Lda.",    105.400000,400.000,31.4862267474058,CAPARICA,COSTAS DE CÃO,105.4 FM,801C,N,Local,Não,,38.6675,-9.216666667,38.6675,-9.216666667,Não,Setúbal,Almada,Caparica e Trafaria
Almada,"MARGINÁUDIO - Actividades Radiofónicas, S.A.",     98.100000,2999.991,52.1057448873363,QUINTA DO RAPOSO DE CIMA,MONTE DE CAPARICA,MARGINAL,800F,N,Local,Não,,38.673055556,-9.194444444,38.673055556,-9.194444444,Não,Setúbal,Almada,Caparica e Trafaria
Almada,"RÁDIO SEM FRONTEIRAS - Sociedade de Radiodifusão, S.A.",     95.000000,1499.996,43.8155377411907,QUINTA DO MIRATEJO,MONTE DE CAPARICA,POSITIVA,80FC,N,Local,Não,,38.675833333,-9.201388889,38.675833333,-9.201388889,Não,Setúbal,Almada,Caparica e Trafaria
Almada,"Rede A - Emissora Regional do Sul, Lda.",    100.800000,2000.000,47.0828907919883,RUA RAPOSO DE CIMA,MONTE DE CAPARICA,MEO SW,8406.000,S,Local,Não,,38.673055556,-9.194444444,38.673055556,-9.194444444,Não,Setúbal,Almada,Caparica e Trafaria
Almada,"Rádio Comercial da Linha, Lda.",    102.600000,1499.996,43.8155377411907,ALMADA,MONTE DA CAPARICA,OXIGENIO,803E,N,Local,Não,,38.676111111,-9.182777778,38.676111111,-9.182777778,Não,Setúbal,Almada,"Almada, Cova da Piedade, Pragal e Cacilhas"
Almeida,"RSF - Radiodifusão, Lda.",    106.900000,500.000,33.2926313568806,ALTO DOS ATAQUES,VILAR FORMOSO,R.FRONT,80D1,N,Local,Não,,40.602222222,-6.830555556,40.601388889,-6.830555556,Sim,Guarda,Almeida,Vilar Formoso
Almeirim,"RÁDIO 100 - Sociedade de Produções Audiovisuais, Lda.",    107.900000,500.000,33.2926313568806,ALTO DA SERRA,FAZENDAS DE ALMEIRIM,RES FM,80F3,N,Local,Não,,39.15,-8.5775,39.15,-8.5775,Não,Santarém,Almeirim,Almeirim
Almeirim,"Rádio Comercial de Almeirim, Lda.",    104.000000,1000.000,39.5918340867651,ALTO DA SERRA,FAZENDAS DE ALMEIRIM,RCA.RIB.,8087.000,N,Local,Não,,39.153611111,-8.578888889,39.153611111,-8.578888889,Não,Santarém,Almeirim,Almeirim
Almodôvar,"Horizontes Planos Informação e Comunicação, Lda",     90.400000,500.000,33.2926313568806,MU,SÃO BARNABÉ,ANT. SUL,80A2,N,Local,Não,,37.370833333,-8.08,37.370833333,-8.080277778,Sim,Beja,Almodôvar,São Barnabé
Almodôvar,"Pajovir - Espectáculos, Marketing e Publicidade, Lda.",    100.400000,50.000,18.721822436302,SERRA DO CALDEIRAO,ALMODOVAR,TOTAL FM,8450.000,S,Local,Sim,,37.370833333,-8.070555556,37.370833333,-8.08,Sim,Beja,Almodôvar,Almodôvar e Graça dos Padrões
Alvaiázere,"Rádio Clube de Alvaiázere, Lda.",     92.300000,1000.000,39.5918340867651,,SERRA DE ALVAIÁZERE,ABC P,806F,N,Local,Não,,39.828888889,-8.410833333,39.828888889,-8.410555556,Sim,Leiria,Alvaiázere,Alvaiázere
Amadora,"R. Cidade, Produções Audiovisuais, Unipessoal, Lda.",    107.200000,1499.996,43.8155377411907,RUA DAS FILIPINAS,SERRA DA MIRA,VODAFONE,800B,N,Local,Não,,38.779722222,-9.241944444,38.779722222,-9.241944444,Não,Lisboa,Amadora,Mina de Água
Amadora,"Rádio Mais, C.R.L.",     93.700000,1499.996,43.8155377411907,AMADORA,SERRA DA MIRA,OBSRVDOR,8010.000,S,Local,Não,,38.782222222,-9.231666667,38.782222222,-9.231666667,Não,Lisboa,Amadora,Mina de Água
Amarante,"Superádio, Unipessoal, Lda.",     89.200000,2000.000,47.0828907919883,ALTO STA CRUZ,LOUREDO,GOLO FM,804B,N,Local,Não,,41.2525,-8.130277778,41.2525,-8.130277778,Não,Porto,Amarante,Louredo
Amarante,"Era-Emissora Regional de Amarante, Lda.",     92.700000,2000.000,47.0828907919883,SANTA CRUZ-SRA DA GRACA,CASTELO NOVO,ERA FM,80A1,N,Local,Não,,41.258333333,-8.133333333,41.248888889,-8.133333333,Sim,Porto,Amarante,Louredo
Amarante,"O.C.I.M. - Organização Cooperativa Informativa Marco, C.R.L.",     93.300000,1000.000,39.5918340867651,ABOGALHEIRA,Folhada,MARCO FM,8015.000,N,Local,Não,,41.194166667,-8.041111111,41.194166667,-8.041111111,Não,Porto,Amarante,Gouveia (São Simão)
Amares,"Rádio Comercial, S.A.",    104.400000,1000.000,39.5918340867651,S. PEDRO FINS,CALDELAS,CIDADE M,8061.000,N,Local,Não,,41.656111111,-8.353055556,41.656111111,-8.353055556,Não,Braga,Amares,Caires
Angra do Heroísmo,"Rádio e Televisão de Portugal, S.A.",     90.500000,100000.000,125.20037245767,TERCEIRA,SANTA BÁRBARA,,,,Nacional,Não,Rede 1 de Cobertura Nacional,38.729722222,-27.318333333,38.729722222,-27.318333333,Não,Açores Terceira,Angra do Heroísmo,Santa Bárbara
Angra do Heroísmo,"Rádio e Televisão de Portugal, S.A.",     98.900000,100000.000,125.20037245767,TERCEIRA,SANTA BÁRBARA,,,,Nacional,Não,Rede 2 de Cobertura Nacional,38.729722222,-27.320277778,38.729722222,-27.320277778,Não,Açores Terceira,Angra do Heroísmo,Santa Bárbara
Angra do Heroísmo,"Rádio e Televisão de Portugal, S.A.",    103.000000,29999.913,92.658575594362,TERCEIRA,SANTA BÁRBARA,,,,Nacional,Não,Rede 3 de Cobertura Nacional,38.729722222,-27.318333333,38.729722222,-27.318333333,Não,Açores Terceira,Angra do Heroísmo,Santa Bárbara
Angra do Heroísmo,"Costa & Osório, Unipessoal, Lda.",    100.500000,500.000,33.2926313568806,ILHA TERCEIRA,SANTA BÁRBARA,CANALFM,8459.000,S,Local,Não,,38.729722222,-27.32,38.729722222,-27.32,Não,Açores Terceira,Angra do Heroísmo,Santa Bárbara
Angra do Heroísmo,Rádio Clube de Angra,    101.100000,400.000,31.4862267474058,TERCEIRA,SANTA BÁRBARA,RC ANGRA,8409.000,S,Local,Não,,38.73,-27.319722222,38.73,-27.319722222,Não,Açores Terceira,Angra do Heroísmo,Santa Bárbara
Angra do Heroísmo,Rádio Clube de Angra,     89.600000,50.000,18.721822436302,PICO MARTIM SIMÃO - ANGRA DO HEROÍSMO,Altares,RC ANGRA,8409.000,S,Local,Sim,,38.793055556,-27.291111111,38.793055556,-27.291111111,Não,Açores Terceira,Angra do Heroísmo,Altares
Angra do Heroísmo,"Ciclone - Publicações e Difusões, Lda.",    104.400000,1000.000,39.5918340867651,ANGRA DO HEROÍSMO,SERRA DA SANTA BÁRBARA,HORIZONT,8436.000,S,Local,Não,,38.73,-27.320555556,38.73,-27.320555556,Não,Açores Terceira,Angra do Heroísmo,Santa Bárbara
Angra do Heroísmo,"Rádio Ilha, Lda.",    106.600000,1000.000,39.5918340867651,TERCEIRA,SANTA BARBARA,_T_O_P_,8413.000,S,Local,Não,,38.730555556,-27.320833333,38.730555556,-27.320833333,Não,Açores Terceira,Angra do Heroísmo,Santa Bárbara
Ansião,"Rádio Vida Nova, C.R.L.",    105.500000,1000.000,39.5918340867651,QUARTINHO,SERRA DA AMEIXIEIRA,VIDANOVA,80C0,N,Local,Não,,39.893611111,-8.407222222,39.893333333,-8.407777778,Sim,Leiria,Ansião,Chão de Couce
Arcos de Valdevez,"Rádio Comercial, S.A.",     94.200000,399.945,31.4851443525488,ALTO DO FACHO - CABANA MAIOR,SOAJO,COMRCIAL,8203.000,S,Nacional,Não,Cobertura Nacional,41.865277778,-8.323888889,41.865277778,-8.323888889,Não,Viana do Castelo,Arcos de Valdevez,Soajo
Arcos de Valdevez,Rádio Valdevez - Associação Cultural de Radiodifusão,     96.400000,1000.000,39.5918340867651,,MONTE COTAO,VALDEVEZ,84A3,S,Local,Não,,41.954166667,-8.4925,41.954166667,-8.4925,Sim,Viana do Castelo,Arcos de Valdevez,Padroso
Arcos de Valdevez,Rádio Valdevez - Associação Cultural de Radiodifusão,    100.800000,50.000,18.721822436302,,SOAJO,VALDEVEZ,84A3,S,Local,Sim,,41.865277778,-8.324166667,41.865277778,-8.323888889,Sim,Viana do Castelo,Arcos de Valdevez,Soajo
Arganil,"Rádio Clube de Arganil - Cooperativa de Rádio, C.R.L.",     97.300000,50.000,18.721822436302,,PIÓDÃO,ARGANIL,840000000.000,S,Local,Sim,,40.261388889,-7.8325,40.250555556,-7.833333333,Sim,Coimbra,Arganil,Pomares
Armamar,"Rádio Clube de Armamar - Produções Radiofónicas, Unipessoal, Lda.",     92.300000,1000.000,39.5918340867651,S. DOMINGOS,FONTELO,RARMAMAR,8081.000,N,Local,Não,,41.121666667,-7.745277778,41.119166667,-7.747222222,Sim,Viseu,Armamar,Fontelo
Arouca,"Rádio Regional de Arouca, Lda.",    103.200000,500.000,33.2926313568806,,SERRA DA FREITA,R-AROUCA,80AD,N,Local,Não,,40.8825,-8.265833333,40.881111111,-8.270277778,Sim,Aveiro,Arouca,Cabreiros e Albergaria da Serra
Arruda dos Vinhos,"Fernando Moura Unipessoal, Lda.",     97.100000,500.000,33.2926313568806,CARVALHA,ARRUDA DOS VINHOS,VIDA FM,80FD,N,Local,Não,,38.972777778,-9.104166667,38.972777778,-9.104166667,Não,Lisboa,Arruda dos Vinhos,Santiago dos Velhos
Aveiro,"Rádio Comercial, S.A.",     92.200000,200.000,26.4766552017592,Travessa Moita,Oliveirinha,COMRCIAL,8203.000,S,Nacional,Não,Cobertura Nacional,40.611944444,-8.602222222,40.611944444,-8.602222222,Sim,Aveiro,Aveiro,Oliveirinha
Aveiro,"Rádio Renascença, Lda.",    102.500000,200.000,26.4766552017592,SÃO BERNARDO,AVEIRO,RR,8221.000,S,Nacional,Não,Rede 1 de Cobertura Nacional,40.623055556,-8.625277778,40.618888889,-8.622777778,Sim,Aveiro,Aveiro,São Bernardo
Aveiro,"Rádio Renascença, Lda.",     97.400000,200.000,26.4766552017592,SÃO BERNARDO,AVEIRO,RFM,8231.000,S,Nacional,Não,Rede 2 de Cobertura Nacional,40.626944444,-8.616666667,40.618888889,-8.622777778,Sim,Aveiro,Aveiro,Santa Joana
Aveiro,"Rádio Regional Aveiro - Empresa de Radiodifusão, Lda.",     96.500000,2000.000,47.0828907919883,QUINTA DE SANTA MOITA,OLIVEIRINHA,RRAVEIRO,8030.000,N,Local,Não,,40.616388889,-8.605555556,40.614444444,-8.606944444,Sim,Aveiro,Aveiro,Oliveirinha
Aveiro,"Moliceiro - Comunicação Social, Unipessoal, Lda.",     94.400000,2000.000,47.0828907919883,TRAVESSA DA MOITA,OLIVEIRINHA,M80AVEIR,8089.000,N,Local,Não,,40.608333333,-8.591666667,40.611944444,-8.602222222,Sim,Aveiro,Aveiro,Oliveirinha
Aveiro,"Rádio Independente de Aveiro, C.R.L.",    105.600000,1000.000,39.5918340867651,AV. DR. LOURENÇO PEIXINHO-173-8º,AVEIRO,E.DIARIA,80A4,N,Local,Não,,40.636388889,-8.650833333,40.643611111,-8.644444444,Sim,Aveiro,Aveiro,Glória e Vera Cruz
Azambuja,"PFM - Radiodifusão, Lda.",     92.200000,1000.000,39.5918340867651,DEP. ÁGUA - VALE DE APÓSTOLOS,Azambuja,K F M,8033.000,N,Local,Não,,39.072777778,-8.895833333,39.072777778,-8.895833333,Sim,Lisboa,Azambuja,Azambuja
Baião,"Rádio e Televisão de Portugal, S.A.",     95.200000,10000.000,70.4053433621716,SENHORA DA SERRA,MARÃO,ANTENA 1,8201.000,S,Nacional,Não,Rede 1 de Cobertura Nacional,41.248055556,-7.886388889,41.248333333,-7.886111111,Sim,Porto,Baião,Teixeira e Teixeiró
Baião,"Rádio e Televisão de Portugal, S.A.",     99.800000,10000.000,70.4053433621716,SENHORA DA SERRA,MARÃO,ANTENA 2,8202.000,S,Nacional,Não,Rede 2 de Cobertura Nacional,41.248055556,-7.886388889,41.248333333,-7.886111111,Sim,Porto,Baião,Teixeira e Teixeiró
Baião,"Rádio e Televisão de Portugal, S.A.",    101.500000,10000.000,70.4053433621716,SENHORA DA SERRA,MARÃO,ANTENA 3,8204.000,S,Nacional,Não,Rede 3 de Cobertura Nacional,41.248055556,-7.886388889,41.248333333,-7.886111111,Sim,Porto,Baião,Teixeira e Teixeiró
Baião,"RÁDIO NOTICIAS - Produções e Publicidade, S.A.",    107.600000,10000.000,70.4053433621716,SENHORA DA SERRA,MARÃO,TSF,8343.000,S,Regional,Não,Cobertura Regional Norte,41.248055556,-7.886666667,41.248333333,-7.885833333,Sim,Porto,Baião,Teixeira e Teixeiró
Barcelos,"Publicelos - Publicidade de Barcelos, Lda.",     91.900000,2000.000,47.0828907919883,MONTE DO FACHO,OLIVEIRA,BARCELOS,80B7,N,Local,Não,,41.578888889,-8.56,41.577777778,-8.560833333,Sim,Braga,Barcelos,Oliveira
Barcelos,"GB-Comunicação, Lda.",    102.400000,500.000,33.2926313568806,SERRA DA OLIVEIRA,FACHO,CAVADOFM,809B,N,Local,Não,,41.577777778,-8.560833333,41.577777778,-8.560833333,Sim,Braga,Barcelos,Oliveira
Batalha,"Rádio e Televisão de Portugal, S.A.",    106.400000,2000.000,47.0828907919883,MAUNÇA,REGUENGO DO FETAL,ANTENA 3,8204.000,S,Nacional,Não,Rede 3 de Cobertura Nacional,39.675,-8.751111111,39.675,-8.751111111,Não,Leiria,Batalha,Reguengo do Fetal
Batalha,"Rádio e Televisão de Portugal, S.A.",     98.700000,2000.000,47.0828907919883,MAUNÇA,REGUENGO DO FETAL,ANTENA 1,8201.000,S,Nacional,Não,Rede 1 de Cobertura Nacional,39.675,-8.751111111,39.675,-8.751111111,Sim,Leiria,Batalha,Reguengo do Fetal
Batalha,"Rádio e Televisão de Portugal, S.A.",    104.200000,2000.000,47.0828907919883,MAUNÇA,REGUENGO DO FETAL,ANTENA 2,8202.000,S,Nacional,Não,Rede 2 de Cobertura Nacional,39.675,-8.751111111,39.675,-8.751111111,Não,Leiria,Batalha,Reguengo do Fetal
Batalha,"Rádio Renascença, Lda.",     95.100000,2000.000,47.0828907919883,MAUNÇA,REGUENGO DO FETAL,RR,8221.000,S,Nacional,Não,Rede 1 de Cobertura Nacional,39.670277778,-8.756666667,39.670277778,-8.756666667,Não,Leiria,Batalha,Reguengo do Fetal
Batalha,"Rádio Renascença, Lda.",    107.700000,2999.991,52.1057448873363,MAUNÇA,REGUENGO DO FETAL,RFM,8231.000,S,Nacional,Não,Rede 2 de Cobertura Nacional,39.670277778,-8.756666667,39.670277778,-8.756666667,Não,Leiria,Batalha,Reguengo do Fetal
Batalha,"Emissora Regional Rádio Batalha, C.R.L.",    104.800000,500.000,33.2926313568806,BATALHA,REGUENGO DO FETAL,BATALHA,80000000000.000,N,Local,Não,,39.634722222,-8.757222222,39.634722222,-8.757222222,Não,Leiria,Batalha,Reguengo do Fetal
Beja,"Rádio Pax - Cooperativa de Serviços, C.R.L.",    101.400000,2000.000,47.0828907919883,RUA DE ANGOLA TORRE C 11,BEJA,PAX BEJA,80B0,N,Local,Não,,38.012222222,-7.8625,38.016111111,-7.865833333,Sim,Beja,Beja,Beja (Santiago Maior e São João Baptista)
Beja,"Voz da Planície - Cooperativa Cultural de Animação Radiofónica, CRL",    104.500000,2000.000,47.0828907919883,R MISERICORDIA 4,BEJA,RVP-BEJA,8079.000,N,Local,Não,,38.013333333,-7.859722222,38.011111111,-7.865833333,Sim,Beja,Beja,Beja (Salvador e Santa Maria da Feira)
Belmonte,Associação Cultural e Recreativa de Caria,    102.500000,1000.000,39.5918340867651,SERRA DA ESPERANÇA,Caria,R.CARIA,807B,N,Local,Não,,40.341666667,-7.358333333,40.341666667,-7.358333333,Não,Castelo Branco,Belmonte,Belmonte e Colmeal da Torre
Benavente,"Irís - Serviço de Informação Regional Independente, Limitada.",     91.400000,2000.000,47.0828907919883,R. OPERÁRIOS AGRÍCOLAS,Samora Correia,IRISFM,801B,N,Local,Não,,38.934722222,-8.868333333,38.934722222,-8.868333333,Não,Santarém,Benavente,Samora Correia
Bombarral,"Match FM Unipessoal, Lda.",     94.800000,1000.000,39.5918340867651,DEP. AGUA,SALGUEIRO,GOLO FM,8046.000,N,Local,Não,,39.3125,-9.125,39.3125,-9.125,Não,Leiria,Bombarral,Carvalhal
Borba,"MEDIABORBA - Sociedade de Comunicação Social, Unipessoal, Lda.",     93.800000,1000.000,39.5918340867651,OUTEIRO DOS PINHEIROS,MATRIZ,BORBA,80DB,N,Local,Não,,38.814166667,-7.465555556,38.814444444,-7.465555556,Sim,Évora,Borba,Borba (Matriz)
Boticas,FORUM BOTICAS - Associação Recreativa e Cultural,    103.900000,500.000,33.2926313568806,SAPIÃOS - BOTICAS,SERRA LEIRANCO,BOTICAS,80B5,N,Local,Não,,41.7325,-7.648888889,41.732777778,-7.649166667,Sim,Vila Real,Boticas,Ardãos e Bobadela
Braga,"Rádio e Televisão de Portugal, S.A.",     88.000000,5000.000,59.203600847957,SAMEIRO,BRAGA,ANTENA 2,8202.000,S,Nacional,Não,Rede 2 de Cobertura Nacional,41.539722222,-8.368333333,41.5375,-8.3675,Sim,Braga,Braga,Espinho
Braga,"Rádio e Televisão de Portugal, S.A.",    103.000000,10000.000,70.4053433621716,SAMEIRO,BRAGA,ANTENA 3,8204.000,S,Nacional,Não,Rede 3 de Cobertura Nacional,41.539722222,-8.368333333,41.5375,-8.3675,Sim,Braga,Braga,Espinho
Braga,"Rádio e Televisão de Portugal, S.A.",     91.300000,10000.000,70.4053433621716,SAMEIRO,BRAGA,ANTENA 1,8201.000,S,Nacional,Não,Rede 1 de Cobertura Nacional,41.539722222,-8.368333333,41.5375,-8.3675,Sim,Braga,Braga,Espinho
Braga,"RTM - Rádio e Televisão do Minho, Lda.",     92.900000,2000.000,47.0828907919883,SANTA MARTA DAS CORTIÇAS,BRAGA,RC_MINHO,805A,N,Local,Não,,41.515555556,-8.396111111,41.513611111,-8.395277778,Sim,Braga,Braga,Esporões
Braga,"RÁDIO NOTICIAS - Produções e Publicidade, S.A.",    106.900000,10000.000,70.4053433621716,SAMEIRO,BRAGA,TSF,8343.000,S,Regional,Não,Cobertura Regional Norte,41.5375,-8.3675,41.538333333,-8.366666667,Sim,Braga,Braga,Espinho
Braga,"Rádio Comercial, S.A.",     99.200000,10000.000,70.4053433621716,SANTA MARTA DAS CORTIÇAS,BRAGA,COMRCIAL,8203.000,S,Nacional,Não,Cobertura Nacional,41.513888889,-8.395555556,41.513611111,-8.395277778,Sim,Braga,Braga,Esporões
Braga,"Rádio Renascença, Lda.",    101.100000,10000.000,70.4053433621716,SAMEIRO,BRAGA,RR,8221.000,S,Nacional,Não,Rede 1 de Cobertura Nacional,41.5375,-8.367777778,41.537222222,-8.367222222,Sim,Braga,Braga,Espinho
Braga,"Rádio Renascença, Lda.",     89.700000,1000.000,39.5918340867651,SAMEIRO,BRAGA,RFM,8231.000,S,Nacional,Não,Rede 2 de Cobertura Nacional,41.5375,-8.367777778,41.537222222,-8.367222222,Sim,Braga,Braga,Espinho
Braga,Associação Académica da Universidade do Minho,     97.500000,1000.000,39.5918340867651,STA MARTA DAS CORTIÇAS,BRAGA,RUM,803B,N,Local,Não,,41.515555556,-8.396111111,41.513611111,-8.395277778,Sim,Braga,Braga,Esporões
Braga,"Antena Minho Emissora Regional de Braga, Lda.",    106.000000,2000.000,47.0828907919883,SANTA MARTA DAS CORTIÇAS,BRAGA,ANTMINHO,802B,N,Local,Não,,41.515555556,-8.396111111,41.515,-8.394444444,Sim,Braga,Braga,Esporões
Bragança,"Rádio e Televisão de Portugal, S.A.",     96.400000,10000.000,70.4053433621716,SÃO BARTOLOMEU,BRAGANÇA,ANTENA 1,8201.000,S,Nacional,Não,Rede 1 de Cobertura Nacional,41.795,-6.748888889,41.794722222,-6.751388889,Sim,Bragança,Bragança,"Sé, Santa Maria e Meixedo"
Bragança,"Rádio e Televisão de Portugal, S.A.",    104.200000,10000.000,70.4053433621716,SÃO BARTOLOMEU,BRAGANÇA,ANTENA 3,8204.000,S,Nacional,Não,Rede 3 de Cobertura Nacional,41.795,-6.748888889,41.794722222,-6.751388889,Sim,Bragança,Bragança,"Sé, Santa Maria e Meixedo"
Bragança,"Rádio e Televisão de Portugal, S.A.",     98.200000,10000.000,70.4053433621716,SÃO BARTOLOMEU,BRAGANÇA,ANTENA 2,8202.000,S,Nacional,Não,Rede 2 de Cobertura Nacional,41.795,-6.748888889,41.794722222,-6.751388889,Sim,Bragança,Bragança,"Sé, Santa Maria e Meixedo"
Bragança,"RÁDIO NOTICIAS - Produções e Publicidade, S.A.",    107.000000,10000.000,70.4053433621716,SÃO BARTOLOMEU,BRAGANÇA,TSF,8343.000,S,Regional,Não,Cobertura Regional Norte,41.795833333,-6.751944444,41.795277778,-6.751666667,Sim,Bragança,Bragança,"Sé, Santa Maria e Meixedo"
Bragança,"RCChaves - Rádio Clube de Chaves FM Unipessoal, Lda.",     91.500000,500.000,33.2926313568806,REBORDÃOS,SERRA DA NOGUEIRA,REGIONAL,80FD,N,Local,Não,,41.7175,-6.854722222,41.718611111,-6.852777778,Sim,Bragança,Bragança,Rebordãos
Bragança,"Rádio Comercial, S.A.",     93.900000,10000.000,70.4053433621716,SERRA DA NOGUEIRA,BRAGANÇA,COMRCIAL,8203.000,S,Nacional,Não,Cobertura Nacional,41.719166667,-6.853055556,41.718333333,-6.853055556,Sim,Bragança,Bragança,Rebordãos
Bragança,"Rádio Renascença, Lda.",     99.500000,10000.000,70.4053433621716, SÃO BARTOLOMEU,BRAGANÇA,RFM,8231.000,S,Nacional,Não,Rede 2 de Cobertura Nacional,41.8,-6.75,41.795555556,-6.746388889,Sim,Bragança,Bragança,"Sé, Santa Maria e Meixedo"
Bragança,"Rádio Renascença, Lda.",    105.700000,10000.000,70.4053433621716,SÃO BARTOLOMEU,BRAGANÇA,RR,8221.000,S,Nacional,Não,Rede 1 de Cobertura Nacional,41.8,-6.75,41.795555556,-6.746388889,Sim,Bragança,Bragança,"Sé, Santa Maria e Meixedo"
Bragança,"Rádio Bragançana, C.R.L.",     89.200000,1000.000,39.5918340867651,SERRA DA NOGUEIRA,BRAGANÇA,M80 RBA,846A,S,Local,Não,,41.719166667,-6.853055556,41.718333333,-6.853055556,Sim,Bragança,Bragança,Rebordãos
Bragança,"Rádio Bragançana, C.R.L.",     90.000000,50.000,18.721822436302,SÃO BARTOLOMEU,BRAGANÇA,M80 RBA,846A,S,Local,Sim,,41.795833333,-6.750555556,41.795555556,-6.751111111,Sim,Bragança,Bragança,"Sé, Santa Maria e Meixedo"
Bragança,"Cooperativa de Radiodifusão Brigantia, C.R.L.",     97.700000,1000.000,39.5918340867651,SERRA DA NOGUEIRA,BRAGANÇA,BRIGNTIA,8468.000,S,Local,Não,,41.718611111,-6.853055556,41.718611111,-6.853055556,Sim,Bragança,Bragança,Rebordãos
Bragança,"Cooperativa de Radiodifusão Brigantia, C.R.L.",     97.300000,50.000,18.721822436302, SÃO BARTOLOMEU,BRAGANÇA,BRIGNTIA,8468.000,S,Local,Sim,,41.795833333,-6.750277778,41.795555556,-6.746111111,Sim,Bragança,Bragança,"Sé, Santa Maria e Meixedo"
Cabeceiras de Basto,"Basminho - Publicidade, Lda.",    100.600000,1000.000,39.5918340867651,CABECEIRAS DE BASTO,MONTE SENHORA DA ORADA,VOZBASTO,84B8,S,Local,Não,,41.489166667,-8.024722222,41.489722222,-8.025,Sim,Braga,Cabeceiras de Basto,Alvite e Passos
Caldas da Rainha,"PENSE POSITIVO, Edição e Distribuição de Audiovisuais, Lda.",    103.100000,1000.000,39.5918340867651,CS BELVER,CALDAS DA RAINHA,R.CALDAS,8069.000,N,Local,Não,,39.412222222,-9.118611111,39.412222222,-9.118611111,Não,Leiria,Caldas da Rainha,"Nossa Senhora do Pópulo, Coto e São Gregório"
Calheta (Madeira),"Rádio e Televisão de Portugal, S.A.",     93.300000,1000.000,39.5918340867651,PAUL DA SERRA,PAUL DA SERRA,,,,Nacional,Não,Rede 3 de Cobertura Nacional,32.754722222,-17.135,32.754722222,-17.135,Sim,Madeira,Calheta (Madeira),Calheta
Calheta (Madeira),"Rádio e Televisão de Portugal, S.A.",    101.900000,1000.000,39.5918340867651,PAUL DA SERRA,PAUL DA SERRA,,,,Nacional,Não,Rede 1 de Cobertura Nacional,32.754722222,-17.135,32.754722222,-17.135,Sim,Madeira,Calheta (Madeira),Calheta
Calheta (Madeira),"Rádio e Televisão de Portugal, S.A.",     90.200000,1000.000,39.5918340867651,,PONTA DO PARGO,,,,Nacional,Não,Rede 1 de Cobertura Nacional,32.811944444,-17.253888889,32.815833333,-17.256388889,Sim,Madeira,Calheta (Madeira),Ponta do Pargo
Calheta (Madeira),"Rádio e Televisão de Portugal, S.A.",     94.600000,1000.000,39.5918340867651,,PONTA DO PARGO,,,,Nacional,Não,Rede 3 de Cobertura Nacional,32.811944444,-17.253888889,32.815833333,-17.256388889,Sim,Madeira,Calheta (Madeira),Ponta do Pargo
Calheta (Madeira),"Rádio e Televisão de Portugal, S.A.",     92.000000,100.000,22.2641244470679,FAJÃ DA OVELHA,MAÇAPEZ,,,,Nacional,Não,Rede 1 de Cobertura Nacional,32.770555556,-17.238333333,32.770555556,-17.238611111,Sim,Madeira,Calheta (Madeira),Fajã da Ovelha
Calheta (Madeira),"Rádio e Televisão de Portugal, S.A.",     95.700000,100.000,22.2641244470679,FAJÃ DA OVELHA,MAÇAPEZ,,,,Nacional,Não,Rede 3 de Cobertura Nacional,32.770555556,-17.238333333,32.770555556,-17.238611111,Sim,Madeira,Calheta (Madeira),Fajã da Ovelha
Calheta (Madeira),"Rádio e Televisão de Portugal, S.A.",    105.400000,100.000,22.2641244470679,,VILA DA CALHETA,,,,Nacional,Não,Rede 1 de Cobertura Nacional,32.723055556,-17.1825,32.723055556,-17.182222222,Sim,Madeira,Calheta (Madeira),Calheta
Calheta (Madeira),"Rádio e Televisão de Portugal, S.A.",    107.500000,100.000,22.2641244470679,,VILA DA CALHETA,,,,Nacional,Não,Rede 3 de Cobertura Nacional,32.723055556,-17.1825,32.723055556,-17.182222222,Sim,Madeira,Calheta (Madeira),Calheta
Calheta (Madeira),"Radiurbe - Produção e Comércio de Publicidade Rádio, Unipessoal, Lda.",     98.800000,500.000,33.2926313568806,ROCHÃO,Arco da Calheta,RCALHETA,8430.000,S,Local,Não,,32.725833333,-17.136944444,32.725833333,-17.136944444,Sim,Madeira,Calheta (Madeira),Arco da Calheta
Calheta (Madeira),"Radiurbe - Produção e Comércio de Publicidade Rádio, Unipessoal, Lda.",    107.100000,50.000,18.721822436302,,FAJÃ DA OVELHA,RCALHETA,8430.000,S,Local,Sim,,32.781666667,-17.224166667,32.781388889,-17.23,Sim,Madeira,Calheta (Madeira),Fajã da Ovelha
Calheta (Madeira),"Radiurbe - Produção e Comércio de Publicidade Rádio, Unipessoal, Lda.",    102.700000,50.000,18.721822436302,,CALHETA,RCALHETA,8430.000,S,Local,Sim,,32.721388889,-17.175277778,32.723055556,-17.182222222,Sim,Madeira,Calheta (Madeira),Calheta
Calheta (Madeira),"Radiurbe - Produção e Comércio de Publicidade Rádio, Unipessoal, Lda.",    104.300000,50.000,18.721822436302,Rua Cais,Paúl do Mar,RCALHETA,8430.000,S,Local,Sim,,32.748333333,-17.213611111,32.752222222,-17.216388889,Sim,Madeira,Calheta (Madeira),Prazeres
Câmara de Lobos,"Rádio e Televisão de Portugal, S.A.",     96.700000,1000.000,39.5918340867651,PICO DO GALO,CABO GIRÃO,,,,Nacional,Não,Rede 1 de Cobertura Nacional,32.661666667,-17.003055556,32.659166667,-17.005277778,Sim,Madeira,Câmara de Lobos,Câmara de Lobos
Câmara de Lobos,"Rádio e Televisão de Portugal, S.A.",     94.800000,1000.000,39.5918340867651,PICO DO GALO,CABO GIRÃO,,,,Nacional,Não,Rede 3 de Cobertura Nacional,32.661666667,-17.003055556,32.659166667,-17.005277778,Sim,Madeira,Câmara de Lobos,Câmara de Lobos
Câmara de Lobos,"Rádio e Televisão de Portugal, S.A.",     99.400000,2999.991,52.1057448873363,PICO DO GALO,CABO GIRÃO,,,,Nacional,Não,Rede 2 de Cobertura Nacional,32.661666667,-17.003055556,32.659166667,-17.005277778,Sim,Madeira,Câmara de Lobos,Câmara de Lobos
Câmara de Lobos,"Ramos, Marques e Vasconcelos, Lda.",     98.400000,500.000,33.2926313568806,CRUZ DAS MOÇAS,PICO DA CRUZ,RFESTVAL,8026.000,N,Local,Não,,32.682222222,-17.000277778,32.684444444,-17.004444444,Sim,Madeira,Câmara de Lobos,Jardim da Serra
Câmara de Lobos,"SPN - Sociedade Produtora de Notícias, Lda.",    101.000000,2000.000,47.0828907919883,CRUZ DAS MOÇAS,PICO DA CRUZ,RPOPULAR,801E,N,Local,Não,,32.682222222,-17.000277778,32.684444444,-17.004444444,Sim,Madeira,Câmara de Lobos,Jardim da Serra
Caminha,"Rádio e Televisão de Portugal, S.A.",     88.000000,500.000,33.2926313568806,COVA DO ZÉM (CRUZEIRO),MOLEDO,ANTENA 2,8202.000,S,Nacional,Não,Rede 2 de Cobertura Nacional,41.835555556,-8.865833333,41.837222222,-8.866111111,Sim,Viana do Castelo,Caminha,Moledo e Cristelo
Caminha,"Rádio e Televisão de Portugal, S.A.",    102.900000,500.000,33.2926313568806,COVA DO ZÉM (CRUZEIRO),MOLEDO,ANTENA 1,8201.000,S,Nacional,Não,Rede 1 de Cobertura Nacional,41.835555556,-8.865833333,41.837222222,-8.866111111,Sim,Viana do Castelo,Caminha,Moledo e Cristelo
Caminha,"Rádio e Televisão de Portugal, S.A.",     92.300000,500.000,33.2926313568806,COVA DO ZÉM (CRUZEIRO),MOLEDO,ANTENA 3,8204.000,S,Nacional,Não,Rede 3 de Cobertura Nacional,41.835555556,-8.865833333,41.837222222,-8.866111111,Sim,Viana do Castelo,Caminha,Moledo e Cristelo
Caminha,"RÁDIO NOTICIAS - Produções e Publicidade, S.A.",     94.400000,199.526,26.4609538220526,,MOLEDO,TSF,8343.000,S,Regional,Não,Cobertura Regional Norte,41.832222222,-8.863888889,41.8325,-8.863888889,Sim,Viana do Castelo,Caminha,Moledo e Cristelo
Caminha,"Rádio Jornal Caminhense, Lda.",    106.200000,1000.000,39.5918340867651,Pedra Alçada,SERRA DE ARGA,CAMINHA,80A2,N,Local,Não,,41.830833333,-8.748333333,41.831111111,-8.748611111,Sim,Viana do Castelo,Caminha,Dem
Campo Maior,"Palavras Originais - Unipessoal, Lda.",     95.900000,500.000,33.2926313568806,HORTA DA CHANCARINA,CAMPO MAIOR,RCM,80DF,N,Local,Não,,39.028888889,-7.086111111,39.026944444,-7.085833333,Sim,Portalegre,Campo Maior,São João Baptista
Cantanhede,"Rádio do Concelho de Cantanhede, Lda.",    103.000000,2000.000,47.0828907919883,AMEIXOEIRA,CANTANHEDE,STAR CAN,801D,N,Local,Não,,40.268055556,-8.558611111,40.267777778,-8.558333333,Sim,Coimbra,Cantanhede,Ançã
Carrazeda de Ansiães,"Cooperativa de Rádio Ansiães, C.R.L.",     98.100000,1000.000,39.5918340867651,SENHORA DA GRAÇA,SAMORINHA,ANSIAES,8083.000,N,Local,Não,,41.261666667,-7.305277778,41.259166667,-7.308055556,Sim,Bragança,Carrazeda de Ansiães,Carrazeda de Ansiães
Cartaxo,"Rádio Cartaxo, C.R.L.",    102.900000,500.000,33.2926313568806,LARGO VALVERDE,CARTAXO,TEJOFM,8081.000,N,Local,Não,,39.162222222,-8.79,39.162222222,-8.79,Não,Santarém,Cartaxo,Cartaxo e Vale da Pinta
Castanheira de Pêra,"Fercorber - Madeiras e Materiais de Construção, Lda.",     97.800000,500.000,33.2926313568806,,SANTO ANTÓNIO DA NEVE,PAMP97.8,80F2,N,Local,Não,,40.077777778,-8.159722222,40.076666667,-8.1625,Sim,Leiria,Castanheira de Pêra,Castanheira de Pêra e Coentral
Castanheira de Pêra,"Rádio Comercial, S.A.",     90.800000,43999.729,101.968990847879,SANTO ANTONIO DAS NEVES,LOUSÃ,COMRCIAL,8203.000,S,Nacional,Não,Cobertura Nacional,40.077222222,-8.1625,40.077222222,-8.1625,Sim,Leiria,Castanheira de Pêra,Castanheira de Pêra e Coentral
Castanheira de Pêra,"Rádio Renascença, Lda.",     91.700000,56000.254,108.306150495784,TREVIM,LOUSÃ,RFM,8231.000,S,Nacional,Não,Rede 2 de Cobertura Nacional,40.088333333,-8.1775,40.091666667,-8.178333333,Sim,Leiria,Castanheira de Pêra,Castanheira de Pêra e Coentral
Castanheira de Pêra,"Rádio Renascença, Lda.",    106.000000,49999.999,105.280543861682,TREVIM,LOUSÃ,RR,8221.000,S,Nacional,Não,Rede 1 de Cobertura Nacional,40.088333333,-8.1775,40.091666667,-8.178333333,Sim,Leiria,Castanheira de Pêra,Castanheira de Pêra e Coentral
Castanheira de Pêra,"Rádio Litoral Centro, Empresa de Rádiodifusão, Lda.",     92.800000,1000.000,39.5918340867651,CABEÇO DO PIÃO,CAMPELO,SMOOTHFI,8044.000,N,Local,Não,,40.043333333,-8.211388889,40.040277778,-8.214722222,Sim,Leiria,Castanheira de Pêra,Castanheira de Pêra e Coentral
Castelo Branco,"Rádio e Televisão de Portugal, S.A.",     89.900000,500.000,33.2926313568806,CASTELO - EDIFÍCIO DA PROTECÇÃO CIVIL,CASTELO BRANCO,ANTENA 1,8201.000,S,Nacional,Não,Rede 1 de Cobertura Nacional,39.83,-7.494444444,39.83,-7.494444444,Não,Castelo Branco,Castelo Branco,Castelo Branco
Castelo Branco,"Rádio e Televisão de Portugal, S.A.",     94.900000,500.000,33.2926313568806,CASTELO - EDIFÍCIO DA PROTECÇÃO CIVIL,CASTELO BRANCO,ANTENA 2,8202.000,S,Nacional,Não,Rede 2 de Cobertura Nacional,39.83,-7.494444444,39.83,-7.494444444,Não,Castelo Branco,Castelo Branco,Castelo Branco
Castelo Branco,"Rádio e Televisão de Portugal, S.A.",    104.300000,500.000,33.2926313568806,CASTELO - EDIFÍCIO DA PROTECÇÃO CIVIL,CASTELO BRANCO,ANTENA 3,8204.000,S,Nacional,Não,Rede 3 de Cobertura Nacional,39.83,-7.494444444,39.83,-7.494444444,Não,Castelo Branco,Castelo Branco,Castelo Branco
Castelo Branco,"RÁDIO NOTICIAS - Produções e Publicidade, S.A.",    105.100000,10000.000,70.4053433621716,,SERRA DA GARDUNHA,TSF,8343.000,S,Regional,Não,Cobertura Regional Norte,40.080277778,-7.525277778,40.080277778,-7.525277778,Não,Castelo Branco,Castelo Branco,São Vicente da Beira
Castelo Branco,"Racab - Rádio Castelo Branco, Lda.",     92.000000,2000.000,47.0828907919883,CASTELINHO,CASTELO BRANCO,RCBranco,806B,N,Local,Não,,39.825833333,-7.4975,39.825833333,-7.4975,Não,Castelo Branco,Castelo Branco,Castelo Branco
Castelo Branco,"Rádio JL FM, Unipessoal, Lda.",     97.500000,50.000,18.721822436302,ALTO DO CASTELO,CASTELO BRANCO,URBANAFM,8474.000,S,Local,Sim,,39.825555556,-7.495833333,39.825555556,-7.495833333,Não,Castelo Branco,Castelo Branco,Castelo Branco
Castelo de Paiva,"Cooperativa Nova Paivense FM, C.R.L.",     99.500000,1000.000,39.5918340867651,SANTO ADRIÃO REAL,CASTELO DE PAIVA,PAIVENSE,8066.000,N,Local,Não,,40.985,-8.254722222,40.983055556,-8.254444444,Sim,Aveiro,Castelo de Paiva,Real
Castro Daire,"Cooperativa de Produções Radiofónicas Rádio Limite Castro Daire, C.R.L.",     89.000000,1000.000,39.5918340867651,LUGAR DO CRUZEIRO,PÓVOA DE MONTEMURO,R.LIMITE,84EC,S,Local,Não,,40.938888889,-7.991388889,40.938888889,-7.991388889,Não,Viseu,Castro Daire,Pinheiro
Castro Marim,"Antena Dez - Rádio Santo António, Lda.",    103.300000,1000.000,39.5918340867651,R DR JOSE A MOREIRA 30,CASTRO MARIM,,,,Local,Não,,37.216666667,-7.441666667,37.216944444,-7.441666667,Sim,Faro,Castro Marim,Castro Marim
Castro Verde,"Cortiçol - Cooperativa de Informação e Cultura, CRL",     93.000000,1000.000,39.5918340867651,ALMEIRIM,CASTRO VERDE,CASTRNSE,800000.000,N,Local,Não,,37.731944444,-8.144722222,37.731944444,-8.144722222,Sim,Beja,Castro Verde,Castro Verde e Casével
Celorico de Basto,"BASTOMÉDIA - Produções de Rádio e Espectáculos, Lda.",    105.600000,500.000,33.2926313568806,ALTO DO VISO,CELORICO DE BASTO,RR BASTO,849A,S,Local,Não,,41.411388889,-8.0625,41.411388889,-8.0625,Não,Braga,Celorico de Basto,Caçarilhe e Infesta
Celorico de Basto,"BASTOMÉDIA - Produções de Rádio e Espectáculos, Lda.",     93.100000,50.000,18.721822436302,CALVELO,FERVENÇA,RR BASTO,849A,S,Local,Sim,,41.371388889,-8.061666667,41.371388889,-8.061666667,Não,Braga,Celorico de Basto,Carvalho e Basto (Santa Tecla)
Chamusca,"Rádio Bonfim - Produções Audio Visuais, Lda.",    104.900000,500.000,33.2926313568806,MONTE DO BONFIM,CHAMUSCA,R.BONFIM,80F4,N,Local,Não,,39.354444444,-8.466944444,39.354444444,-8.466944444,Não,Santarém,Chamusca,Chamusca e Pinheiro Grande
Chaves,"Próvotexto Unipessoal, Lda",     93.500000,1000.000,39.5918340867651,NOGUEIRA DA MONTANHA,Carvela,CHAVESFM,808D,N,Local,Não,,41.6975,-7.437777778,41.6975,-7.437777778,Não,Vila Real,Chaves,Nogueira da Montanha
Cinfães,"Oficina de Video, Lda.",     87.800000,1000.000,39.5918340867651,PORTELA DA CORUJA,TAROUQUELA,MONTMURO,849C,S,Local,Não,,41.061944444,-8.178055556,41.061944444,-8.178055556,Não,Viseu,Cinfães,Tarouquela
Coimbra,"Rádio e Televisão de Portugal, S.A.",     94.900000,4000.000,55.9913087247286,RUA DR. ALBERTO REIS,COIMBRA,ANTENA 1,8201.000,S,Nacional,Não,Rede 1 de Cobertura Nacional,40.216111111,-8.404722222,40.216944444,-8.408333333,Sim,Coimbra,Coimbra,Santo António dos Olivais
Coimbra,"Rádio e Televisão de Portugal, S.A.",    103.400000,1000.000,39.5918340867651,"RUA DR. JOSÉ ALBERTO DOS REIS, 74",COIMBRA,AFRICA,8458.000,S,Local,Não,RDP África,40.216111111,-8.404722222,40.216944444,-8.408333333,Sim,Coimbra,Coimbra,Santo António dos Olivais
Coimbra,"Rádio e Televisão de Portugal, S.A.",     88.300000,1000.000,39.5918340867651,Rua José Alberto dos Reis,Coimbra,ANTENA 2,8202.000,S,Nacional,Não,Rede 2 de Cobertura Nacional,40.216111111,-8.404722222,40.216111111,-8.404722222,Não,Coimbra,Coimbra,Santo António dos Olivais
Coimbra,"Rádio e Televisão de Portugal, S.A.",    101.200000,1000.000,39.5918340867651,Rua José Alberto dos Reis,Coimbra,ANTENA 3,8204.000,S,Nacional,Não,Rede 3 de Cobertura Nacional,40.216111111,-8.404722222,40.216111111,-8.404722222,Não,Coimbra,Coimbra,Santo António dos Olivais
Coimbra,Associação Académica de Coimbra,    107.900000,2000.000,47.0828907919883,OBSERVATORIO ASTRONOMICO,COIMBRA,RUC,8051.000,N,Local,Não,,40.201388889,-8.443611111,40.201388889,-8.443611111,Não,Coimbra,Coimbra,Santa Clara e Castelo Viegas
Coimbra,"PRC - Produções Radiofónicas de Coimbra, Lda.",     98.400000,5000.000,59.203600847957,CRUZ DE MOROUÇOS,COIMBRA,M80COIMB,80CB,N,Local,Não,,40.183888889,-8.453611111,40.1825,-8.455555556,Sim,Coimbra,Coimbra,Santa Clara e Castelo Viegas
Coimbra,"Rádio 90 FM, Coimbra - Radiodifusão, Lda.",     90.000000,5000.000,59.203600847957,CRUZ DE MOROUÇOS,COIMBRA,MEGAFM-C,802A,N,Local,Não,,40.184444444,-8.456944444,40.184444444,-8.456944444,Sim,Coimbra,Coimbra,Assafarge e Antanhol
Coimbra,"Cooperativa Santo André - Rádio e Cultura, C.R.L.",    100.500000,1000.000,39.5918340867651,SERRA DO CARVALHO,VILA NOVA DE POIARES,MUNDIAL,805E,N,Local,Não,,40.208888889,-8.323333333,40.208888889,-8.323333333,Sim,Coimbra,Coimbra,Torres do Mondego
Condeixa-a-Nova,"Rádio Regional Centro, Lda.",     96.200000,1000.000,39.5918340867651,SERRA DE JANEANES,MOINHO DO OUTEIRO,R.CENTRO,8017.000,N,Local,Não,,40.06,-8.480555556,40.059722222,-8.480277778,Sim,Coimbra,Condeixa-a-Nova,Zambujal
Coruche,"A Voz do Sorraia - Emissor Regional Concelho Coruche, C.R.L.",     94.700000,2000.000,47.0828907919883,DEPOSITO DE AGUA,CORUCHE,RSORRAIA,80EA,N,Local,Não,,38.964722222,-8.527777778,38.964722222,-8.527777778,Não,Santarém,Coruche,"Coruche, Fajarda e Erra"
Covilhã,"RCC - Rádio Clube da Covilhã, C.R.L.",     95.600000,1000.000,39.5918340867651,ALTO DE PIÇARRINHAS,COVILHÃ,RCOVILHA,8088.000,N,Local,Não,,40.284444444,-7.540833333,40.284444444,-7.540833333,Não,Castelo Branco,Covilhã,Covilhã e Canhoso
Elvas,"Rádio e Televisão de Portugal, S.A.",    103.800000,8000.000,66.5852627137612,VILA BOIM,VILA BOIM,ANTENA 1,8201.000,S,Nacional,Não,Rede 1 de Cobertura Nacional,38.875277778,-7.263333333,38.875277778,-7.263611111,Sim,Portalegre,Elvas,São Brás e São Lourenço
Elvas,"Rádio e Televisão de Portugal, S.A.",     93.200000,8000.000,66.5852627137612,VILA BOIM,VILA BOIM,ANTENA 2,8202.000,S,Nacional,Não,Rede 2 de Cobertura Nacional,38.875277778,-7.263333333,38.875277778,-7.263611111,Sim,Portalegre,Elvas,São Brás e São Lourenço
Elvas,"Rádio e Televisão de Portugal, S.A.",    101.600000,8000.000,66.5852627137612,VILA BOIM,VILA BOIM,ANTENA 3,8204.000,S,Nacional,Não,Rede 3 de Cobertura Nacional,38.875277778,-7.263333333,38.875277778,-7.263611111,Sim,Portalegre,Elvas,São Brás e São Lourenço
Elvas,"SER - Sociedade Elvense de Radiodifusão, Lda.",     91.500000,500.000,33.2926313568806,,VILA BOIM,RADELVAS,84CE,S,Local,Não,,38.875555556,-7.263888889,38.875555556,-7.263888889,Sim,Portalegre,Elvas,Terrugem e Vila Boim
Elvas,"SER - Sociedade Elvense de Radiodifusão, Lda.",    104.300000,50.000,18.721822436302,"Rua dos Chilões, Elvas",ELVAS,RADELVAS,84CE,S,Local,Sim,,38.879166667,-7.1625,38.878611111,-7.161944444,Sim,Portalegre,Elvas,"Caia, São Pedro e Alcáçova"
Elvas,"SER - Sociedade Elvense de Radiodifusão, Lda.",    103.000000,50.000,18.721822436302,RUA DE SÃO VICENTE,SÃO VICENTE,RADELVAS,84CE,S,Local,Sim,,38.953888889,-7.2125,38.953055556,-7.210277778,Sim,Portalegre,Elvas,São Vicente e Ventosa
Elvas,"Rádio Comercial, S.A.",    105.900000,1000.000,39.5918340867651,ELVAS,Vila Boim,COMRCIAL,8203.000,S,Nacional,Não,Cobertura Nacional,38.875555556,-7.263888889,38.875555556,-7.263888889,Sim,Portalegre,Elvas,Terrugem e Vila Boim
Elvas,"Rádio Renascença, Lda.",     99.800000,1000.000,39.5918340867651,VILA BOIM,ELVAS,RR,8221.000,S,Nacional,Não,Rede 1 de Cobertura Nacional,38.861388889,-7.267222222,38.866944444,-7.250277778,Sim,Portalegre,Elvas,Terrugem e Vila Boim
Elvas,"Rádio Renascença, Lda.",    102.300000,100.000,22.2641244470679,LARGO  DA ALCÁÇOVAS,ELVAS,RR,8221.000,S,Nacional,Não,Rede 1 de Cobertura Nacional,38.8825,-7.163611111,38.8825,-7.163611111,Sim,Portalegre,Elvas,"Caia, São Pedro e Alcáçova"
Elvas,"Rádio Renascença, Lda.",    107.100000,1000.000,39.5918340867651,VILA BOIM,ELVAS,RFM,8231.000,S,Nacional,Não,Rede 2 de Cobertura Nacional,38.861388889,-7.267222222,38.866944444,-7.250277778,Sim,Portalegre,Elvas,Terrugem e Vila Boim
Entroncamento,"RVE - Sociedade Radiofónica, Lda.",    105.700000,1000.000,39.5918340867651,DEPÓSITO DE ÁGUA,ENTRONCAMENTO,RADIOVOZ,8090.000,N,Local,Não,,39.470833333,-8.470833333,39.470833333,-8.470833333,Não,Santarém,Entroncamento,Nossa Senhora de Fátima
Entroncamento,"CR - Comunicação Regional, Lda.",     88.400000,1000.000,39.5918340867651,LUGAR DAS VENDAS,GOLEGÃ,,,,Local,Não,,39.443055556,-8.473055556,39.443055556,-8.473055556,Não,Santarém,Entroncamento,São João Baptista
Estarreja,"Rádio Voz da Ria - Emissora Concelhia de Estarreja, C.R.L.",     90.200000,1000.000,39.5918340867651,TORRE BOMBEIROS VOLUNTÁRIOS ESTARREJA,Estarreja,VOZDARIA,80000.000,N,Local,Não,,40.761111111,-8.5725,40.753055556,-8.570555556,Sim,Aveiro,Estarreja,Beduído e Veiros
Évora,"DIANA FM - Radiodifusão, Unipessoal, Lda.",     94.100000,2000.000,47.0828907919883,ÉVORA,SÃO BENTO DE CASTRIS,DIANA-EV,808A,N,Local,Não,,38.5825,-7.936388889,38.580833333,-7.938055556,Sim,Évora,Évora,Malagueira e Horta das Figueiras
Évora,"Difusão de Ideias - Sociedade de Radiodifusão, Lda.",    105.400000,2000.000,47.0828907919883,ÉVORA,SÃO BENTO DE CASTRIS,R- JOVEM,808F,N,Local,Não,,38.5825,-7.936388889,38.581388889,-7.938055556,Sim,Évora,Évora,Malagueira e Horta das Figueiras
Évora,"Piçarra & Companhia, Lda.",    103.200000,2000.000,47.0828907919883,ÉVORA,SÃO BENTO DE CASTRIS,TELFONIA,80D0,N,Local,Não,,38.581388889,-7.938333333,38.581388889,-7.938055556,Sim,Évora,Évora,Malagueira e Horta das Figueiras
Fafe,"Empresa do Jornal O Correio de Fafe, Lda.",    103.800000,1000.000,39.5918340867651,SERRA DO MAROIÇO,Fafe,M80MINHO,8085.000,N,Local,Não,,41.541666667,-8.148333333,41.541666667,-8.148055556,Sim,Braga,Fafe,Monte e Queimadela
Faro,"Rádio e Televisão de Portugal, S.A.",     97.600000,10000.000,70.4053433621716,SÃO MIGUEL,FARO,ANTENA 1,8201.000,S,Nacional,Não,Rede 1 de Cobertura Nacional,37.101388889,-7.831944444,37.101388889,-7.831944444,Sim,Faro,Faro,Conceição e Estoi
Faro,"Rádio e Televisão de Portugal, S.A.",     93.400000,10000.000,70.4053433621716,SÃO MIGUEL,FARO,ANTENA 2,8202.000,S,Nacional,Não,Rede 2 de Cobertura Nacional,37.101388889,-7.831944444,37.101388889,-7.831944444,Sim,Faro,Faro,Conceição e Estoi
Faro,"Rádio e Televisão de Portugal, S.A.",    100.700000,10000.000,70.4053433621716,SÃO MIGUEL,FARO,ANTENA 3,8204.000,S,Nacional,Não,Rede 3 de Cobertura Nacional,37.101388889,-7.831944444,37.101388889,-7.831944444,Sim,Faro,Faro,Conceição e Estoi
Faro,"Rádio e Televisão de Portugal, S.A.",     99.100000,1000.000,39.5918340867651,SÃO MIGUEL,FARO,AFRICA,8458.000,S,Local,Não,RDP África,37.101388889,-7.831944444,37.101388889,-7.831944444,Sim,Faro,Faro,Conceição e Estoi
Felgueiras,"Rádio Felgueiras, C.R.L.",     92.200000,1000.000,39.5918340867651,MONTE DE SÃO DOMINGOS,MARGARIDE,RF FELG,8070.000,N,Local,Não,,41.373333333,-8.193333333,41.377777778,-8.2,Sim,Porto,Felgueiras,"Margaride, Várzea, Lagares, Varziela, Moure"
Ferreira do Alentejo,"Rádio Singa, C.R.L.",    104.000000,500.000,33.2926313568806,DEPÓSITO DE ÁGUA DO PEREIRO,FERREIRA DO ALENTEJO,SINGA FM,80BB,N,Local,Não,,38.05,-8.1025,38.053055556,-8.108055556,Sim,Beja,Ferreira do Alentejo,Ferreira do Alentejo e Canhestros
Ferreira do Zêzere,"Empresa Editora Cidade de Tomar, Lda.",     90.500000,2000.000,47.0828907919883,IGREJA NOVA,ALTO DE SANTA CATARINA,CIDTOMAR,8039.000,N,Local,Não,,39.689444444,-8.322222222,39.689444444,-8.322222222,Não,Santarém,Ferreira do Zêzere,Igreja Nova do Sobral
Ferreira do Zêzere,Associação Cultural Regional do Zêzere,    102.700000,1000.000,39.5918340867651,IGREJA NOVA DO SOBRAL,SERRA SANTA CATARINA,ERZ-FZZ,80F8,N,Local,Não,,39.693333333,-8.3225,39.693333333,-8.3225,Não,Santarém,Ferreira do Zêzere,Igreja Nova do Sobral
Figueira da Foz,"Foz do Mondego - Meios de Radiodifusão, Lda.",     99.100000,2000.000,47.0828907919883,LUGAR DO ALTO DE BRENHA,BRENHA,FFOZ99.1,8099.000,N,Local,Não,,40.192222222,-8.841944444,40.192222222,-8.841944444,Sim,Coimbra,Figueira da Foz,Quiaios
Figueira da Foz,"RECORD FM - Sociedade de Meios Audiovisuais de Sintra, Lda.",     92.100000,2000.000,47.0828907919883,CASAL DO MATO,ALTO DO CABECINHO,MAIORCA,806C,N,Local,Não,,40.175833333,-8.787222222,40.174722222,-8.788333333,Sim,Coimbra,Figueira da Foz,Alhadas
Figueira de Castelo Rodrigo,"Rádio e Televisão de Portugal, S.A.",     97.200000,20000.000,83.7265352605041,Serra da Marofa,SERRA DA MAROFA,ANTENA 1,8201.000,S,Nacional,Não,Rede 1 de Cobertura Nacional,40.866666667,-6.992222222,40.864166667,-6.992777778,Sim,Guarda,Figueira de Castelo Rodrigo,Castelo Rodrigo
Figueira de Castelo Rodrigo,"Rádio e Televisão de Portugal, S.A.",     93.400000,20000.000,83.7265352605041,Serra da Marofa,SERRA DA MAROFA,ANTENA 2,8202.000,S,Nacional,Não,Rede 2 de Cobertura Nacional,40.866666667,-6.992222222,40.864166667,-6.992777778,Sim,Guarda,Figueira de Castelo Rodrigo,Castelo Rodrigo
Figueira de Castelo Rodrigo,"Rádio e Televisão de Portugal, S.A.",    104.600000,10000.000,70.4053433621716,Serra da Marofa,SERRA DA MAROFA,ANTENA 3,8204.000,S,Nacional,Não,Rede 3 de Cobertura Nacional,40.866666667,-6.992222222,40.864166667,-6.992777778,Sim,Guarda,Figueira de Castelo Rodrigo,Castelo Rodrigo
Figueira de Castelo Rodrigo,"RÁDIO NOTICIAS - Produções e Publicidade, S.A.",    105.400000,10000.000,70.4053433621716,,SERRA DA MAROFA,TSF,8343.000,S,Regional,Não,Cobertura Regional Norte,40.863888889,-6.991944444,40.864722222,-6.992222222,Sim,Guarda,Figueira de Castelo Rodrigo,Colmeal e Vilar Torpim
Figueira de Castelo Rodrigo,"Rádio Renascença, Lda.",     94.200000,16000.001,79.1836694107749,,SERRA DA MAROFA,RR,8221.000,S,Nacional,Não,Rede 1 de Cobertura Nacional,40.865,-6.990555556,40.864166667,-6.991944444,Sim,Guarda,Figueira de Castelo Rodrigo,Castelo Rodrigo
Figueira de Castelo Rodrigo,"Rádio Renascença, Lda.",    103.000000,10000.000,70.4053433621716,,SERRA DA MAROFA,RFM,8231.000,S,Nacional,Não,Rede 2 de Cobertura Nacional,40.865,-6.990555556,40.864166667,-6.991944444,Sim,Guarda,Figueira de Castelo Rodrigo,Castelo Rodrigo
Figueiró dos Vinhos,"Fercorber - Madeiras e Materiais de Construção, Lda.",     93.400000,500.000,33.2926313568806,CABEÇO DE MALHADIZES,ESPINHAL,S.MIGUEL,80B1,N,Local,Não,,40.007777778,-8.296111111,40.007222222,-8.2975,Sim,Leiria,Figueiró dos Vinhos,Campelo
Fornos de Algodres,Associação de Promoção Social Cultural e Desportiva de Fornos de Algodres,     87.600000,500.000,33.2926313568806,LUGAR DA RASA,INFIAS,IMAGEM,80C9,N,Local,Não,,40.636388889,-7.538611111,40.636388889,-7.538611111,Sim,Guarda,Fornos de Algodres,Infias
Funchal,"Rádio e Televisão de Portugal, S.A.",     95.500000,43999.729,101.968990847879,Achada Grande,Pico do Areeiro,,,,Nacional,Não,Rede 1 de Cobertura Nacional,32.720555556,-16.917222222,32.721388889,-16.916944444,Sim,Madeira,Funchal,Monte
Funchal,"Rádio e Televisão de Portugal, S.A.",     94.100000,43999.729,101.968990847879,Achada Grande,Pico do Areeiro,,,,Nacional,Não,Rede 3 de Cobertura Nacional,32.720555556,-16.917222222,32.721388889,-16.916944444,Sim,Madeira,Funchal,Monte
Funchal,"Rádio e Televisão de Portugal, S.A.",     89.800000,1000.000,39.5918340867651,MONTE,FUNCHAL,,,,Nacional,Não,Rede 3 de Cobertura Nacional,32.6675,-16.906666667,32.671944444,-16.911388889,Sim,Madeira,Funchal,Monte
Funchal,"Rádio e Televisão de Portugal, S.A.",    104.600000,1000.000,39.5918340867651,MONTE,FUNCHAL,,,,Nacional,Não,Rede 1 de Cobertura Nacional,32.6675,-16.906666667,32.671944444,-16.911388889,Sim,Madeira,Funchal,Monte
Funchal,"Rádio e Televisão de Portugal, S.A.",    102.400000,1000.000,39.5918340867651,MONTE,FUNCHAL,,,,Nacional,Não,Rede 2 de Cobertura Nacional,32.6675,-16.906666667,32.671944444,-16.911388889,Sim,Madeira,Funchal,Monte
Funchal,"Rádio e Televisão de Portugal, S.A.",     88.400000,43999.729,101.968990847879,Achada Grande,Pico do Areeiro,,,,Nacional,Não,Rede 2 de Cobertura Nacional,32.720555556,-16.917222222,32.720555556,-16.917222222,Não,Madeira,Funchal,Monte
Funchal,"Notícias 2000 FM - Actividade de Radiodifusão Sonora, Lda.",    100.000000,2000.000,47.0828907919883,MONTE,FUNCHAL,TSF.MAD,8023.000,N,Local,Não,,32.705555556,-16.908611111,32.708055556,-16.912222222,Sim,Madeira,Funchal,Monte
Funchal,"Rádio Clube (Madeira), Lda.",    106.800000,400.000,31.4862267474058,PICO ALTO,MONTE,R-CLUBE,803F,N,Local,Não,,32.693333333,-16.903888889,32.692777778,-16.903055556,Sim,Madeira,Funchal,Monte
Funchal,"Posto Emissor de Radiodifusão do Funchal, Lda.",     92.000000,2000.000,47.0828907919883,Caminho Barreira,Funchal,PEF FM,8099.000,N,Local,Não,,32.684166667,-16.946666667,32.683055556,-16.946944444,Sim,Madeira,Funchal,Santo António
Funchal,"Empresa Jornal da Madeira, Lda.",     88.800000,1000.000,39.5918340867651,MONTE,FUNCHAL,RJM-88.8,8057.000,N,Local,Não,,32.705,-16.908055556,32.708611111,-16.911944444,Sim,Madeira,Funchal,Monte
Fundão,"Rádio e Televisão de Portugal, S.A.",     96.400000,10000.000,70.4053433621716,Serra da Gardunha,SERRA DA GARDUNHA,ANTENA 1,8201.000,S,Nacional,Não,Rede 1 de Cobertura Nacional,40.103055556,-7.486388889,40.103055556,-7.486388889,Não,Castelo Branco,Fundão,Alcongosta
Fundão,"Rádio e Televisão de Portugal, S.A.",     93.900000,10000.000,70.4053433621716,Serra da Gardunha,SERRA DA GARDUNHA,ANTENA 2,8202.000,S,Nacional,Não,Rede 2 de Cobertura Nacional,40.103055556,-7.486388889,40.103055556,-7.486388889,Não,Castelo Branco,Fundão,Alcongosta
Fundão,"Rádio e Televisão de Portugal, S.A.",    101.300000,10000.000,70.4053433621716,SERRA DA GARDUNHA,SERRA DA GARDUNHA,ANTENA 3,8204.000,S,Nacional,Não,Rede 3 de Cobertura Nacional,40.103055556,-7.486388889,40.103055556,-7.486388889,Não,Castelo Branco,Fundão,Alcongosta
Fundão,"Rádio JL FM, Unipessoal, Lda.",    100.800000,1000.000,39.5918340867651,SERRA DA GARDUNHA,TORRE,URBANAFM,8474.000,S,Local,Não,,40.079722222,-7.526666667,40.079722222,-7.526666667,Não,Castelo Branco,Fundão,Souto da Casa
Fundão,"Rádio Comercial, S.A.",     98.200000,10000.000,70.4053433621716,,SERRA DA GARDUNHA,COMRCIAL,8203.000,S,Nacional,Não,Cobertura Nacional,40.105555556,-7.487222222,40.105555556,-7.487222222,Não,Castelo Branco,Fundão,Alcongosta
Fundão,"Rádio Renascença, Lda.",     99.500000,10000.000,70.4053433621716,,SERRA DA GARDUNHA,RFM,8231.000,S,Nacional,Não,Rede 2 de Cobertura Nacional,40.079722222,-7.521388889,40.079722222,-7.521388889,Não,Castelo Branco,Fundão,Castelo Novo
Fundão,"Rádio Renascença, Lda.",    103.400000,10000.000,70.4053433621716,,SERRA DA GARDUNHA,RR,8221.000,S,Nacional,Não,Rede 1 de Cobertura Nacional,40.079722222,-7.521388889,40.079722222,-7.521388889,Não,Castelo Branco,Fundão,Castelo Novo
Fundão,"RCB - Rádio Cova da Beira, C.R.L.",    100.000000,500.000,33.2926313568806,SERRA DA GARDUNHA,ALCONGOSTA,R.C.B.,84AE,S,Local,Não,,40.106388889,-7.502777778,40.106388889,-7.502777778,Não,Castelo Branco,Fundão,Alcongosta
Fundão,"RCB - Rádio Cova da Beira, C.R.L.",     92.500000,50.000,18.721822436302,MAUNÇA-SERRA DO AÇOR,CASTELEJO,R.C.B.,84AE,S,Local,Sim,,40.098055556,-7.649444444,40.098055556,-7.649444444,Não,Castelo Branco,Fundão,Castelejo
Góis,"Rádio e Televisão de Portugal, S.A.",     87.900000,100000.000,125.20037245767,TREVIM,LOUSÃ,ANTENA 1,8201.000,S,Nacional,Não,Rede 1 de Cobertura Nacional,40.091111111,-8.177222222,40.09,-8.178333333,Sim,Coimbra,Góis,Góis
Góis,"Rádio e Televisão de Portugal, S.A.",     89.300000,100000.000,125.20037245767,TREVIM,LOUSÃ,ANTENA 2,8202.000,S,Nacional,Não,Rede 2 de Cobertura Nacional,40.091111111,-8.177222222,40.09,-8.178333333,Sim,Coimbra,Góis,Góis
Góis,"Rádio e Televisão de Portugal, S.A.",    102.200000,100000.000,125.20037245767,TREVIM,LOUSÃ,ANTENA 3,8204.000,S,Nacional,Não,Rede 3 de Cobertura Nacional,40.091111111,-8.177222222,40.09,-8.178333333,Sim,Coimbra,Góis,Góis
Góis,"Rádio Clube de Arganil - Cooperativa de Rádio, C.R.L.",     88.500000,500.000,33.2926313568806,SERRA DA AVELEIRA,ARGANIL,ARGANIL,840000000.000,S,Local,Não,,40.186944444,-7.999444444,40.185833333,-8.001111111,Sim,Coimbra,Góis,Cadafaz e Colmeal
Gouveia,"Antena Livre de Gouveia - Cooperativa de Radiodifusão, C.R.L.",     89.600000,1000.000,39.5918340867651,CERCA DOS MARQUESES,S PEDRO,R._LIVRE,801C,N,Local,Não,,40.491944444,-7.5875,40.4925,-7.588333333,Sim,Guarda,Gouveia,Gouveia
Grândola,"Rádio e Televisão de Portugal, S.A.",     99.200000,10000.000,70.4053433621716,Atalaia da Guarida,Grândola,ANTENA 1,8201.000,S,Nacional,Não,Rede 1 de Cobertura Nacional,38.171666667,-8.644166667,38.171666667,-8.644166667,Não,Setúbal,Grândola,Grândola e Santa Margarida da Serra
Grândola,"Rádio e Televisão de Portugal, S.A.",     90.600000,10000.000,70.4053433621716,ATALAIA DA GUARITA,Grândola,ANTENA 2,8202.000,S,Nacional,Não,Rede 2 de Cobertura Nacional,38.171388889,-8.644166667,38.171388889,-8.644166667,Não,Setúbal,Grândola,Grândola e Santa Margarida da Serra
Grândola,"Rádio e Televisão de Portugal, S.A.",    103.600000,10000.000,70.4053433621716,ATALAIA DA GUARITA,Grândola,ANTENA 3,8204.000,S,Nacional,Não,Rede 3 de Cobertura Nacional,38.171388889,-8.644166667,38.171388889,-8.644166667,Não,Setúbal,Grândola,Grândola e Santa Margarida da Serra
Grândola,"Rádio e Televisão de Portugal, S.A.",    106.700000,100.000,22.2641244470679,CARVALHAL,TRÓIA,ANTENA 1,8201.000,S,Nacional,Não,Rede 1 de Cobertura Nacional,38.485,-8.9,38.485,-8.9,Não,Setúbal,Grândola,Carvalhal
Grândola,"Rádio e Televisão de Portugal, S.A.",     99.700000,100.000,22.2641244470679,CARVALHAL,TRÓIA,ANTENA 2,8202.000,S,Nacional,Não,Rede 2 de Cobertura Nacional,38.485,-8.9,38.485,-8.9,Não,Setúbal,Grândola,Carvalhal
Grândola,"Rádio e Televisão de Portugal, S.A.",    107.900000,100.000,22.2641244470679,CARVALHAL,TRÓIA,ANTENA 3,8204.000,S,Nacional,Não,Rede 3 de Cobertura Nacional,38.485,-8.9,38.485,-8.9,Não,Setúbal,Grândola,Carvalhal
Grândola,"Rádio Comercial, S.A.",     96.800000,10000.000,70.4053433621716,ALTO DOS CLEMENTES,GRANDOLA,COMRCIAL,8203.000,S,Nacional,Não,Cobertura Nacional,38.1725,-8.648055556,38.1725,-8.648055556,Não,Setúbal,Grândola,Melides
Grândola,"Rádio Regional de Lisboa - Emissões de Radiodifusão, S.A.",    107.500000,10000.000,70.4053433621716,ALTO DOS CLEMENTES,GRANDOLA,M80,8332.000,S,Regional,Não,Cobertura Regional Sul,38.1725,-8.648055556,38.1725,-8.648055556,Não,Setúbal,Grândola,Melides
Grândola,"Rádio Clube de Grândola, C.R.L.",     91.300000,400.000,31.4862267474058,GRANDOLA,ALTO DOS CLEMENTES,RCG 91.3,800000000.000,N,Local,Não,,38.1725,-8.648055556,38.1725,-8.648055556,Não,Setúbal,Grândola,Melides
Guarda,"Rádio e Televisão de Portugal, S.A.",     94.700000,10000.000,70.4053433621716,PEDRA DO VENTO,GUARDA,ANTENA 1,8201.000,S,Nacional,Não,Rede 1 de Cobertura Nacional,40.525555556,-7.280833333,40.5225,-7.285277778,Sim,Guarda,Guarda,Guarda
Guarda,"Rádio e Televisão de Portugal, S.A.",     88.400000,10000.000,70.4053433621716,PEDRA DO VENTO,GUARDA,ANTENA 2,8202.000,S,Nacional,Não,Rede 2 de Cobertura Nacional,40.525555556,-7.280833333,40.5225,-7.285277778,Sim,Guarda,Guarda,Guarda
Guarda,"Rádio e Televisão de Portugal, S.A.",    100.600000,10000.000,70.4053433621716,PEDRA DO VENTO,GUARDA,ANTENA 3,8204.000,S,Nacional,Não,Rede 3 de Cobertura Nacional,40.525555556,-7.280833333,40.5225,-7.285277778,Sim,Guarda,Guarda,Guarda
Guarda,"Radialtitude - Sociedade de Comunicação da Guarda, Lda.",     90.900000,2000.000,47.0828907919883,PEDRA DO VENTO,GUARDA,ALTITUDE,80EE,N,Local,Não,,40.522777778,-7.284166667,40.521944444,-7.286388889,Sim,Guarda,Guarda,Guarda
Guarda,"RÁDIO NOTICIAS - Produções e Publicidade, S.A.",    106.600000,10000.000,70.4053433621716,PEDRA DO VENTO,GUARDA,TSF,8343.000,S,Regional,Não,Cobertura Regional Norte,40.5225,-7.285,40.521944444,-7.285833333,Sim,Guarda,Guarda,Guarda
Guarda,"Rádio Comercial, S.A.",     96.100000,10000.000,70.4053433621716,PEDRA DO VENTO,GUARDA,COMRCIAL,8203.000,S,Nacional,Não,Cobertura Nacional,40.5225,-7.285277778,40.521944444,-7.286388889,Sim,Guarda,Guarda,Guarda
Guarda,"Rádio Renascença, Lda.",    104.000000,10000.000,70.4053433621716,PARQUE DE CAMPISMO,GUARDA,RFM,8231.000,S,Nacional,Não,Rede 2 de Cobertura Nacional,40.535,-7.273888889,40.533611111,-7.276111111,Sim,Guarda,Guarda,Guarda
Guarda,"Rádio Renascença, Lda.",     90.200000,10000.000,70.4053433621716,PARQUE DE CAMPISMO,GUARDA,RR,8221.000,S,Nacional,Não,Rede 1 de Cobertura Nacional,40.535,-7.273888889,40.533611111,-7.276111111,Sim,Guarda,Guarda,Guarda
Guarda,Fundação Frei Pedro,    105.800000,2000.000,47.0828907919883,MATA MUNICIPAL  JUNTO R. SOEIRO VIEGAS,GUARDA,RADIO F,8022.000,N,Local,Não,,40.535,-7.273888889,40.536111111,-7.273055556,Sim,Guarda,Guarda,Guarda
Guimarães,"Interlocal - Comunicação, S.A.",     95.800000,2000.000,47.0828907919883,PENHA,PENHA - GUIMARÃES,FUNDACAO,8056.000,N,Local,Não,,41.429166667,-8.2675,41.428888889,-8.268611111,Sim,Braga,Guimarães,Costa
Guimarães,"Guimapress, S.A.",     98.000000,2000.000,47.0828907919883,PENHA,GUIMARÃES,SANTIAGO,801E,N,Local,Não,,41.429166667,-8.268611111,41.428888889,-8.268611111,Sim,Braga,Guimarães,Costa
Horta,"Rádio e Televisão de Portugal, S.A.",     88.900000,10000.000,70.4053433621716,CABEÇO GORDO,CABEÇO GORDO,,,,Nacional,Não,Rede 1 de Cobertura Nacional,38.575833333,-28.713055556,38.575833333,-28.713055556,Não,Açores Faial,Horta,Flamengos
Horta,"Rádio e Televisão de Portugal, S.A.",     93.800000,500.000,33.2926313568806,ESPALAMACA,HORTA,,,,Nacional,Não,Rede 1 de Cobertura Nacional,38.5475,-28.619444444,38.548055556,-28.617777778,Não,Açores Faial,Horta,Horta (Conceição)
Horta,"Rádio e Televisão de Portugal, S.A.",    101.400000,500.000,33.2926313568806,ESPALAMACA,HORTA,,,,Nacional,Não,Rede 2 de Cobertura Nacional,38.5475,-28.619444444,38.548055556,-28.617777778,Não,Açores Faial,Horta,Horta (Conceição)
Horta,"Rádio e Televisão de Portugal, S.A.",     98.100000,1000.000,39.5918340867651,"CAPELO, HORTA",CABEÇO VERDE,,,,Nacional,Não,Rede 1 de Cobertura Nacional,38.592222222,-28.799166667,38.591944444,-25.7975,Não,Açores Faial,Horta,Capelo
Horta,"Rádio e Televisão de Portugal, S.A.",    105.800000,10000.000,70.4053433621716,CABEÇO GORDO,CABEÇO GORDO,,,,Nacional,Não,Rede 2 de Cobertura Nacional,38.575833333,-28.713055556,38.575833333,-28.713055556,Não,Açores Faial,Horta,Flamengos
Horta,"Rádio e Televisão de Portugal, S.A.",    102.700000,1000.000,39.5918340867651,ESPALAMACA,HORTA,,,,Nacional,Não,Rede 3 de Cobertura Nacional,38.5475,-28.619444444,38.548055556,-28.617777778,Não,Açores Faial,Horta,Horta (Conceição)
Horta,"Rádio e Televisão de Portugal, S.A.",     92.900000,1000.000,39.5918340867651,"CAPELO, HORTA",CABEÇO VERDE,,,,Nacional,Não,Rede 2 de Cobertura Nacional,38.592222222,-28.799166667,38.591944444,-25.7975,Não,Açores Faial,Horta,Capelo
Horta,"Rádio e Televisão de Portugal, S.A.",     99.200000,10000.000,70.4053433621716,CABEÇO GORDO,CABEÇO GORDO,,,,Nacional,Não,Rede 3 de Cobertura Nacional,38.575833333,-28.713055556,38.575833333,-28.713055556,Não,Açores Faial,Horta,Flamengos
Horta,"Cooperativa de Radiodifusão do Pico, C.R.L.",    100.200000,500.000,33.2926313568806,CAPELO,CABEÇO GORDO,R PICO,84F9,S,Local,Não,,38.576111111,-28.714166667,38.576111111,-28.714166667,Não,Açores Faial,Horta,Flamengos
Horta,"Antena Nove, C.R.L.",     91.300000,500.000,33.2926313568806,CAPELO,CABEÇO GORDO,ANTENA 9,84AF,S,Local,Não,,38.575555556,-28.713333333,38.575555556,-28.713333333,Não,Açores Faial,Horta,Flamengos
Horta,"Antena Nove, C.R.L.",    102.200000,50.000,18.721822436302,"R S. JOÃO, 38 B",HORTA,ANTENA 9,84AF,S,Local,Sim,,38.5475,-28.619444444,38.538888889,-28.626944444,Não,Açores Faial,Horta,Horta (Conceição)
Horta,"Antena Nove, C.R.L.",     94.900000,50.000,18.721822436302,CABEÇO VERDE,CABEÇO VERDE - CAPELO,ANTENA 9,84AF,S,Local,Sim,,38.592222222,-28.799166667,38.592222222,-28.799166667,Não,Açores Faial,Horta,Capelo
Horta,"Antena Nove, C.R.L.",     95.900000,50.000,18.721822436302,HORTA,LOMBA DOS ESPALHAFATOS,ANTENA 9,84AF,S,Local,Sim,,38.606111111,-28.633333333,38.606111111,-28.633333333,Não,Açores Faial,Horta,Ribeirinha
Idanha-a-Nova,"Monsantorádio - Radio Clube de Monsanto, Unipessoal, Lda.",     98.700000,1000.000,39.5918340867651,ALTO DO CASTELO,MONSANTO,MONSANTO,840D,S,Local,Não,,40.0375,-7.114722222,40.0375,-7.114722222,Não,Castelo Branco,Idanha-a-Nova,Monsanto e Idanha-a-Velha
Idanha-a-Nova,"Monsantorádio - Radio Clube de Monsanto, Unipessoal, Lda.",    107.800000,50.000,18.721822436302,SERRA DE MONFORTINHO,TERMAS DE MONFORTINHO,MONSANTO,840D,S,Local,Sim,,39.997222222,-6.888888889,39.997222222,-6.888888889,Não,Castelo Branco,Idanha-a-Nova,Monfortinho e Salvaterra do Extremo
Ílhavo,"NOVOS MARES - Radiodifusão, Lda.",    105.000000,1000.000,39.5918340867651,COLONIA AGRICOLA,GAFANHA DA NAZARÉ,TERANOVA,807A,N,Local,Não,,40.625277778,-8.709166667,40.624166667,-8.711111111,Sim,Aveiro,Ílhavo,Gafanha da Nazaré
Lagoa (Algarve),"LAGOANIMA - Empresa Radiofónica e de Comunicação da Lagoa, Lda.",     99.400000,1000.000,39.5918340867651,SOBRAL,PORCHES,LAGOA FM,84B1,S,Local,Não,,37.138055556,-8.4,37.1325,-8.400555556,Sim,Faro,Lagoa (Algarve),Porches
Lagoa (Algarve),"LAGOANIMA - Empresa Radiofónica e de Comunicação da Lagoa, Lda.",    100.000000,50.000,18.721822436302,TORREÃO DE FERRAGUDO,FERRAGUDO,LAGOA FM,84B1,S,Local,Sim,,37.123611111,-8.519166667,37.123333333,-8.518888889,Sim,Faro,Lagoa (Algarve),Ferragudo
Lagoa (São Miguel),"Rádio e Televisão de Portugal, S.A.",     97.900000,49999.999,105.280543861682,SÃO MIGUEL,PICO DA BARROSA,,,,Nacional,Não,Rede 1 de Cobertura Nacional,37.761111111,-25.493055556,37.761111111,-25.493055556,Não,Açores São Miguel,Lagoa (São Miguel),Água de Pau
Lagoa (São Miguel),"Rádio e Televisão de Portugal, S.A.",    101.700000,49999.999,105.280543861682,SÃO MIGUEL,PICO DA BARROSA,,,,Nacional,Não,Rede 2 de Cobertura Nacional,37.761111111,-25.493055556,37.761111111,-25.493055556,Não,Açores São Miguel,Lagoa (São Miguel),Água de Pau
Lagoa (São Miguel),"Rádio e Televisão de Portugal, S.A.",     87.700000,29999.913,92.658575594362,SÃO MIGUEL,PICO DA BARROSA,,,,Nacional,Não,Rede 3 de Cobertura Nacional,37.761111111,-25.493055556,37.761111111,-25.493055556,Não,Açores São Miguel,Lagoa (São Miguel),Água de Pau
Lagoa (São Miguel),"Costa & Osório, Unipessoal, Lda.",     91.000000,500.000,33.2926313568806,SÃO MIGUEL,PICO DA BARROSA,CANAL FM,847F,S,Local,Não,,37.760833333,-25.4925,37.760833333,-25.4925,Não,Açores São Miguel,Lagoa (São Miguel),Água de Pau
Lagoa (São Miguel),"Super Onda, Unipessoal, Lda.",     90.200000,500.000,33.2926313568806,SÃO MIGUEL,SERRA DA BARROSA,R8O,84F7,S,Local,Não,,37.758611111,-25.494166667,37.758611111,-25.494166667,Não,Açores São Miguel,Lagoa (São Miguel),Água de Pau
Lagoa (São Miguel),"Rádio Renascença, Lda.",     95.200000,49999.999,105.280543861682,SÃO MIGUEL,PICO DA BARROSA,RR,8221.000,S,Nacional,Não,Rede 1 de Cobertura Nacional,37.760555556,-25.492222222,37.760555556,-25.492222222,Não,Açores São Miguel,Lagoa (São Miguel),Água de Pau
Lagoa (São Miguel),"Rádio Renascença, Lda.",    100.000000,49999.999,105.280543861682,SÃO MIGUEL,PICO DA BARROSA,RFM,8231.000,S,Nacional,Não,Rede 2 de Cobertura Nacional,37.760555556,-25.492222222,37.760555556,-25.492222222,Não,Açores São Miguel,Lagoa (São Miguel),Água de Pau
Lagoa (São Miguel),"Cooperativa do Ramo de Cultura Denominada Ecos do Norte, C.R.L.",    105.500000,2000.000,47.0828907919883,SÃO MIGUEL,PICO DA BARROSA,RNC,8405.000,S,Local,Não,,37.759444444,-25.491944444,37.759444444,-25.491944444,Não,Açores São Miguel,Lagoa (São Miguel),Água de Pau
Lagos,"Pajovir - Espectáculos, Marketing e Publicidade, Lda.",     94.600000,1000.000,39.5918340867651,FALFEIRA,LAGOS,SAGRESFM,80A7,N,Local,Não,,37.115,-8.695,37.114722222,-8.695,Sim,Faro,Lagos,São Gonçalo de Lagos
Lajes das Flores,"Rádio e Televisão de Portugal, S.A.",    102.600000,200.000,26.4766552017592,ER1-2,LAJES DAS FLORES,,,,Nacional,Não,Rede 1 de Cobertura Nacional,39.386944444,-31.172777778,39.386944444,-31.172777778,Não,Açores Flores,Lajes das Flores,Fazenda
Lajes das Flores,"Rádio e Televisão de Portugal, S.A.",     97.000000,500.000,33.2926313568806,ER1-2,LAJES DAS FLORES,,,,Nacional,Não,Rede 2 de Cobertura Nacional,39.386944444,-31.172777778,39.386944444,-31.172777778,Não,Açores Flores,Lajes das Flores,Fazenda
Lajes das Flores,"Rádio e Televisão de Portugal, S.A.",    100.400000,1000.000,39.5918340867651,FAJÃZINHA,LAJES DAS FLORES,,,,Nacional,Não,Rede 1 de Cobertura Nacional,39.428611111,-31.258055556,39.428611111,-31.258055556,Não,Açores Flores,Lajes das Flores,Fajãzinha
Lajes das Flores,"Rádio e Televisão de Portugal, S.A.",    103.700000,1000.000,39.5918340867651,FAJÃZINHA,LAJES DAS FLORES,,,,Nacional,Não,Rede 2 de Cobertura Nacional,39.428611111,-31.258055556,39.428611111,-31.258055556,Não,Açores Flores,Lajes das Flores,Fajãzinha
Lajes do Pico,"Rádio e Televisão de Portugal, S.A.",    103.700000,1000.000,39.5918340867651,LAJES DO PICO,PICO DO GERALDO,,,,Nacional,Não,Rede 1 de Cobertura Nacional,38.401111111,-28.235277778,38.401111111,-28.235277778,Não,Açores Pico,Lajes do Pico,Lajes do Pico
Lajes do Pico,"Rádio e Televisão de Portugal, S.A.",     96.500000,1000.000,39.5918340867651,CAMINHO VELHO,Lajes do Pico,,,,Nacional,Não,Rede 1 de Cobertura Nacional,38.389722222,-28.251388889,38.389722222,-28.251388889,Não,Açores Pico,Lajes do Pico,Lajes do Pico
Lajes do Pico,"Rádio e Televisão de Portugal, S.A.",    107.500000,1000.000,39.5918340867651,LAJES DO PICO,PICO DO GERALDO,,,,Nacional,Não,Rede 2 de Cobertura Nacional,38.401111111,-28.235277778,38.401111111,-28.235277778,Não,Açores Pico,Lajes do Pico,Lajes do Pico
Lajes do Pico,"Rádio e Televisão de Portugal, S.A.",     93.500000,1000.000,39.5918340867651,CAMINHO VELHO,Lajes do Pico,,,,Nacional,Não,Rede 2 de Cobertura Nacional,38.389722222,-28.251388889,38.389722222,-28.251388889,Não,Açores Pico,Lajes do Pico,Lajes do Pico
Lajes do Pico,"Rádio e Televisão de Portugal, S.A.",     94.500000,299.999,29.3012111881995,ILHA DO PICO,ARRIFE,,,,Nacional,Não,Rede 1 de Cobertura Nacional,38.389722222,-28.226111111,38.388611111,-28.221666667,Não,Açores Pico,Lajes do Pico,Lajes do Pico
Lajes do Pico,"Rádio e Televisão de Portugal, S.A.",     97.500000,299.999,29.3012111881995,ILHA DO PICO,ARRIFE,,,,Nacional,Não,Rede 2 de Cobertura Nacional,38.389722222,-28.226111111,38.388611111,-28.221666667,Não,Açores Pico,Lajes do Pico,Lajes do Pico
Lajes do Pico,"Rádio e Televisão de Portugal, S.A.",     98.600000,1000.000,39.5918340867651,CAMINHO VELHO,Lajes do Pico,,,,Nacional,Não,Rede 3 de Cobertura Nacional,38.389722222,-28.251388889,38.389722222,-28.251388889,Não,Açores Pico,Lajes do Pico,Lajes do Pico
Lajes do Pico,"Rádio Clube das Lages do Pico a Voz da Montanha, C.R.L.",    104.700000,500.000,33.2926313568806,CIMO DA LADEIRA,LAJES DO PICO,MONTANHA,84DE,S,Local,Não,,38.388333333,-28.249444444,38.388333333,-28.249444444,Não,Açores Pico,Lajes do Pico,Lajes do Pico
Lajes do Pico,"Rádio Clube das Lages do Pico a Voz da Montanha, C.R.L.",     88.300000,50.000,18.721822436302,LAJES DO PICO,ARRIFE,MONTANHA,84DE,S,Local,Sim,,38.390277778,-28.224166667,38.390277778,-28.224166667,Não,Açores Pico,Lajes do Pico,Lajes do Pico
Lajes do Pico,"Rádio Clube das Lages do Pico a Voz da Montanha, C.R.L.",    105.300000,50.000,18.721822436302,FETAIS,PIEDADE,MONTANHA,84DE,S,Local,Sim,,38.413888889,-28.065,38.413611111,-28.063611111,Não,Açores Pico,Lajes do Pico,Piedade
Lamego,"Rádio e Televisão de Portugal, S.A.",     87.900000,200.000,26.4766552017592,FONTELO,SÃO DOMINGOS,ANTENA 1,8201.000,S,Nacional,Não,Rede 1 de Cobertura Nacional,41.120555556,-7.746944444,41.119722222,-7.747222222,Sim,Viseu,Lamego,Parada do Bispo e Valdigem
Lamego,"Rádio e Televisão de Portugal, S.A.",     89.300000,200.000,26.4766552017592,FONTELO,SÃO DOMINGOS,ANTENA 2,8202.000,S,Nacional,Não,Rede 2 de Cobertura Nacional,41.120555556,-7.746944444,41.119722222,-7.747222222,Sim,Viseu,Lamego,Parada do Bispo e Valdigem
Lamego,"Rádio e Televisão de Portugal, S.A.",    103.700000,200.000,26.4766552017592,FONTELO,SÃO DOMINGOS,ANTENA 3,8204.000,S,Nacional,Não,Rede 3 de Cobertura Nacional,41.120555556,-7.746944444,41.119722222,-7.747222222,Sim,Viseu,Lamego,Parada do Bispo e Valdigem
Lamego,"Rádio João Bosco, Lda.",     94.100000,2000.000,47.0828907919883,SERRA DAS MEADAS,Lamego,BOSCO.FM,80CC,N,Local,Não,,41.102777778,-7.86,41.1025,-7.86,Sim,Viseu,Lamego,Penude
Lamego,"Rádio Comercial, S.A.",     88.700000,10000.000,70.4053433621716,SERRA DAS MEADAS,LAMEGO,COMRCIAL,8203.000,S,Nacional,Não,Cobertura Nacional,41.113055556,-7.845277778,41.114166667,-7.844722222,Sim,Viseu,Lamego,Avões
Lamego,"Rádio Renascença, Lda.",     98.600000,11999.966,73.688654167593,SERRA DAS MEADAS,LAMEGO,RR,8221.000,S,Nacional,Não,Rede 1 de Cobertura Nacional,41.113055556,-7.845277778,41.113333333,-7.845,Sim,Viseu,Lamego,Avões
Lamego,"Rádio Renascença, Lda.",    106.200000,11999.966,73.688654167593,SERRA DAS MEADAS,LAMEGO,RFM,8231.000,S,Nacional,Não,Rede 2 de Cobertura Nacional,41.113055556,-7.845277778,41.113333333,-7.845,Sim,Viseu,Lamego,Avões
Lamego,"Rádio Clube de Lamego, Lda.",     97.000000,2000.000,47.0828907919883,AVÕES,CASTANHEIRA,RCLAMEGO,8448.000,S,Local,Não,,41.114444444,-7.842222222,41.113888889,-7.845555556,Sim,Viseu,Lamego,Avões
Lamego,"Rádio Clube de Lamego, Lda.",    107.900000,50.000,18.721822436302,"URBANIZAÇÃO DA ORTIGOSA, BLOCO 6",LAMEGO,RCLAMEGO,8448.000,S,Local,Sim,,41.097222222,-7.806666667,41.099722222,-7.802222222,Sim,Viseu,Lamego,Lamego (Almacave e Sé)
Leiria,"Rádio Comercial, S.A.",     89.000000,1000.000,39.5918340867651,SENHORA DO MONTE,LEIRIA,COMRCIAL,8203.000,S,Nacional,Não,Cobertura Nacional,39.681666667,-8.755833333,39.6825,-8.755,Sim,Leiria,Leiria,"Leiria, Pousos, Barreira e Cortes"
Leiria,"RECORD FM - Sociedade de Meios Audiovisuais de Sintra, Lda.",    101.400000,2000.000,47.0828907919883,SENHORA DO MONTE,LEIRIA,RECORD L,8071.000,N,Local,Não,,39.681666667,-8.755833333,39.681666667,-8.755833333,Não,Leiria,Leiria,"Leiria, Pousos, Barreira e Cortes"
Leiria,"Leirimédia, Produções e Publicidade, Lda.",     93.000000,2000.000,47.0828907919883,SENHORA DO MONTE,LEIRIA,M80LEIRI,803C,N,Local,Não,,39.681666667,-8.755833333,39.6825,-8.755,Sim,Leiria,Leiria,"Leiria, Pousos, Barreira e Cortes"
Leiria,"E.D.R. - Empresa Difusão Rádio, S.A.",     94.000000,2000.000,47.0828907919883,SENHORA DO MONTE,LEIRIA,94LEIRIA,807C,N,Local,Não,,39.681666667,-8.755833333,39.681666667,-8.755833333,Não,Leiria,Leiria,"Leiria, Pousos, Barreira e Cortes"
Lisboa,"Rádio e Televisão de Portugal, S.A.",     95.700000,100000.000,125.20037245767,"Avenida Tenente Martins, 10",Lisboa,ANTENA 1,8201.000,S,Nacional,Não,Rede 1 de Cobertura Nacional,38.731944444,-9.188611111,38.731944444,-9.188611111,Não,Lisboa,Lisboa,Benfica
Lisboa,"Rádio e Televisão de Portugal, S.A.",     94.400000,100000.000,125.20037245767,"Avenida Tenente Martins, 10",Lisboa,ANTENA 2,8202.000,S,Nacional,Não,Rede 2 de Cobertura Nacional,38.731944444,-9.188611111,38.731944444,-9.188611111,Não,Lisboa,Lisboa,Benfica
Lisboa,"Rádio e Televisão de Portugal, S.A.",    100.300000,100000.000,125.20037245767,"Avenida Tenente Martins, 10",Lisboa,ANTENA 3,8204.000,S,Nacional,Não,Rede 3 de Cobertura Nacional,38.731944444,-9.188611111,38.731944444,-9.188611111,Não,Lisboa,Lisboa,Benfica
Lisboa,"Rádio e Televisão de Portugal, S.A.",    101.500000,5000.000,59.203600847957,"Avenida Tenente Martins, 10",Lisboa,AFRICA,8458.000,S,Local,Não,RDP África,38.731944444,-9.188611111,38.731944444,-9.188611111,Não,Lisboa,Lisboa,Benfica
Lisboa,"Rádio XXI, Lda.",     96.600000,5000.000,59.203600847957,MONSANTO,LISBOA,SMOOTHFM,80BD,N,Local,Não,,38.738611111,-9.19,38.738611111,-9.19,Não,Lisboa,Lisboa,Benfica
Lisboa,"Rádio Comercial, S.A.",     97.400000,43999.729,101.968990847879,MONSANTO,LISBOA,COMRCIAL,8203.000,S,Nacional,Não,Cobertura Nacional,38.738611111,-9.19,38.738611111,-9.19,Não,Lisboa,Lisboa,Benfica
Lisboa,"Rádio Regional de Lisboa - Emissões de Radiodifusão, S.A.",    104.300000,49999.999,105.280543861682,MONSANTO,LISBOA,M80,8332.000,S,Regional,Não,Cobertura Regional Sul,38.738611111,-9.19,38.738611111,-9.19,Não,Lisboa,Lisboa,Benfica
Lisboa,"Rádio Renascença, Lda.",     93.200000,49999.999,105.280543861682,MONSANTO,LISBOA,RFM,8231.000,S,Nacional,Não,Rede 2 de Cobertura Nacional,38.732222222,-9.188611111,38.732222222,-9.188611111,Não,Lisboa,Lisboa,Benfica
Lisboa,"Rádio Renascença, Lda.",    103.400000,49999.999,105.280543861682,MONSANTO,LISBOA,RR,8221.000,S,Nacional,Não,Rede 1 de Cobertura Nacional,38.732222222,-9.188611111,38.732222222,-9.188611111,Não,Lisboa,Lisboa,Benfica
Lisboa,"Rádio Renascença, Lda.",     92.400000,5000.000,59.203600847957,MONSANTO,LISBOA,MEGAHITS,844E,S,Local,Não,,38.732222222,-9.188611111,38.732222222,-9.188611111,Não,Lisboa,Lisboa,Benfica
Lisboa,"TSF - Rádio Jornal Lisboa, Lda.",     89.500000,5000.000,59.203600847957,MONSANTO,LISBOA,TSF,8343.000,S,Local,Não,,38.7325,-9.188055556,38.7325,-9.188055556,Sim,Lisboa,Lisboa,Benfica
Lisboa,"Sociedade Franco Portuguesa de Comunicação, S.A.",     90.400000,5000.000,59.203600847957,SERRA DE MONSANTO,LISBOA,SBSR,8059.000,N,Local,Não,,38.738611111,-9.19,38.738611111,-9.19,Não,Lisboa,Lisboa,Benfica
Lisboa,"CÔCO - Companhia de Comunicação, Lda.",     91.600000,5000.000,59.203600847957,MONSANTO,LISBOA,CIDADEFM,844C,S,Local,Não,,38.738611111,-9.19,38.738611111,-9.19,Não,Lisboa,Lisboa,Benfica
Loulé,"Pajovir - Espectáculos, Marketing e Publicidade, Lda.",    103.100000,2000.000,47.0828907919883,CERRO DE ALFEICAO,LOULÉ,TOTAL FM,8450.000,S,Local,Não,,37.160833333,-8.060555556,37.160833333,-8.060555556,Não,Faro,Loulé,Loulé (São Sebastião)
Loulé,"Rádio Clube de Loulé, C.R.L.",     99.700000,2000.000,47.0828907919883,CERRO DO ALFEIÇÃO,ALMANSIL,CIDAD AG,80F2,N,Local,Não,,37.159444444,-8.058888889,37.159444444,-8.058888889,Não,Faro,Loulé,Loulé (São Sebastião)
Loulé,"R.T.A. - Sociedade de Radiodifusão e Telecomunicações de Albufeira, Unipessoal, Lda.",     95.800000,1000.000,39.5918340867651,PICOTA,LOULÉ,KISS FM,8444.000,S,Local,Não,,37.159722222,-8.110277778,37.158055556,-8.111111111,Sim,Faro,Loulé,Loulé (São Sebastião)
Loures,"Rádio Horizonte Tejo - Radiodifusão, Comunicação e Meios, Unipessoal, Lda.",     92.800000,2000.000,47.0828907919883,MAROITAS NORTE - ALTO S. LOURENÇO,São João da Talha,HORIZ.FM,804F,N,Local,Não,,38.835555556,-9.108055556,38.835555556,-9.108055556,Não,Lisboa,Loures,"Santa Iria de Azoia, São João da Talha e Bobadela"
Loures,"Rádio Nova Loures, Lda.",     92.000000,2000.000,47.0828907919883,BICA,SERRA DA AMOREIRA,AMALIA,8007.000,N,Local,Não,,38.813333333,-9.197222222,38.813333333,-9.197222222,Não,Lisboa,Loures,Loures
Loures,"Publidifusão, Sociedade de Radiodifusão e Publicidade, Lda.",    101.900000,2000.000,47.0828907919883,ALTO DO MOSQUEIRO,MONTEMOR,ORBITAL,8014.000,N,Local,Não,,38.824444444,-9.203333333,38.824444444,-9.203333333,Não,Lisboa,Loures,Loures
Lourinhã,"Rádio Clube da Lourinhã, C.R.L.",     99.000000,1000.000,39.5918340867651,PREGANÇA,LOURINHÃ,RCL99.FM,80C3,N,Local,Não,,39.210833333,-9.293055556,39.210833333,-9.293055556,Não,Lisboa,Lourinhã,Santa Bárbara
Lousã,"RÁDIO NOTICIAS - Produções e Publicidade, S.A.",    107.400000,49999.999,105.280543861682,TREVIM,LOUSÃ,TSF,8343.000,S,Regional,Não,Cobertura Regional Norte,40.09,-8.179166667,40.090833333,-8.178333333,Sim,Coimbra,Lousã,Lousã e Vilarinho
Macedo de Cavaleiros,"Rádio e Televisão de Portugal, S.A.",     91.100000,10000.000,70.4053433621716,Serra de Bornes,Macedo de Cavaleiros,ANTENA 2,8202.000,S,Nacional,Não,Rede 2 de Cobertura Nacional,41.435555556,-7.005833333,41.433055556,-7.005833333,Sim,Bragança,Macedo de Cavaleiros,Bornes e Burga
Macedo de Cavaleiros,"Rádio e Televisão de Portugal, S.A.",    102.100000,10000.000,70.4053433621716,Serra de Bornes,Macedo de Cavaleiros,ANTENA 3,8204.000,S,Nacional,Não,Rede 3 de Cobertura Nacional,41.435555556,-7.005833333,41.433055556,-7.005833333,Sim,Bragança,Macedo de Cavaleiros,Bornes e Burga
Macedo de Cavaleiros,"Rádio e Televisão de Portugal, S.A.",     92.800000,10000.000,70.4053433621716,Serra de Bornes,Macedo de Cavaleiros,ANTENA 1,8201.000,S,Nacional,Não,Rede 1 de Cobertura Nacional,41.435555556,-7.005833333,41.433055556,-7.005833333,Sim,Bragança,Macedo de Cavaleiros,Bornes e Burga
Macedo de Cavaleiros,"Rádio Livre Macedense, C.R.L.",     87.700000,500.000,33.2926313568806,MACEDO DE CAVALEIROS,BORNES,ONDALIVR,84D3,S,Local,Não,,41.434722222,-7.004444444,41.434444444,-7.006944444,Sim,Bragança,Macedo de Cavaleiros,Bornes e Burga
Macedo de Cavaleiros,"Rádio Livre Macedense, C.R.L.",    106.000000,50.000,18.721822436302,MACEDO DE CAVALEIROS,SOBREDA,ONDALIVR,84D3,S,Local,Sim,,41.506388889,-6.815555556,41.506111111,-6.814722222,Sim,Bragança,Macedo de Cavaleiros,Morais
Machico,"Rádio e Televisão de Portugal, S.A.",     93.100000,100.000,22.2641244470679,,PICO DO FACHO,,,,Nacional,Não,Rede 1 de Cobertura Nacional,32.723055556,-16.755,32.723888889,-16.759166667,Sim,Madeira,Machico,Caniçal
Machico,"Rádio e Televisão de Portugal, S.A.",     90.800000,100.000,22.2641244470679,,PICO DO FACHO,,,,Nacional,Não,Rede 3 de Cobertura Nacional,32.723055556,-16.755,32.723888889,-16.759166667,Sim,Madeira,Machico,Caniçal
Machico,"Ramos, Marques e Vasconcelos, Lda.",     89.600000,1000.000,39.5918340867651,CABEÇO DO CURA,SANTO DA SERRA,R.ZARCO,8020.000,N,Local,Não,,32.741111111,-16.810555556,32.741944444,-16.808888889,Sim,Madeira,Machico,Santo António da Serra
Madalena,"Rádio e Televisão de Portugal, S.A.",    103.400000,316.228,29.6896926105113,PICO,São Mateus,,,,Nacional,Não,Rede 1 de Cobertura Nacional,38.423055556,-28.448055556,38.423055556,-28.448055556,Não,Açores Pico,Madalena,São Mateus
Madalena,"Costa & Osório, Unipessoal, Lda.",     92.700000,50.000,18.721822436302,,Bandeiras,CANALFM,8459.000,S,Local,Sim,,38.531388889,-28.441111111,38.531388889,-28.441111111,Não,Açores Pico,Madalena,Bandeiras
Madalena,"Cooperativa de Radiodifusão do Pico, C.R.L.",     90.200000,50.000,18.721822436302,FAROL DE SÃO MATEUS,ARIEIRO,R PICO,84F9,S,Local,Sim,,38.429166667,-28.449166667,38.423055556,-28.448055556,Não,Açores Pico,Madalena,São Mateus
Mafra,"Mafra FM - Cooperativa Radiodifusão, C.R.L.",    105.600000,1000.000,39.5918340867651,SERRA DO FUNCHAL,AVESSADA,RCMAFRA,8065.000,N,Local,Não,,38.911388889,-9.274166667,38.911388889,-9.274166667,Sim,Lisboa,Mafra,Malveira e São Miguel de Alcainça
Manteigas,"Rádio e Televisão de Portugal, S.A.",    104.800000,500.000,33.2926313568806,CHÃO DAS BARCAS,MANTEIGAS,ANTENA 1,8201.000,S,Nacional,Não,Rede 1 de Cobertura Nacional,40.420833333,-7.541666667,40.417777778,-7.543611111,Sim,Guarda,Manteigas,Manteigas (Santa Maria)
Manteigas,"Rádio e Televisão de Portugal, S.A.",     91.600000,500.000,33.2926313568806,CHÃO DAS BARCAS,MANTEIGAS,ANTENA 2,8202.000,S,Nacional,Não,Rede 2 de Cobertura Nacional,40.420833333,-7.541666667,40.417777778,-7.543611111,Sim,Guarda,Manteigas,Manteigas (Santa Maria)
Manteigas,"Rádio e Televisão de Portugal, S.A.",    100.300000,500.000,33.2926313568806,CHÃO DAS BARCAS,MANTEIGAS,ANTENA 3,8204.000,S,Nacional,Não,Rede 3 de Cobertura Nacional,40.420833333,-7.541666667,40.417777778,-7.543611111,Sim,Guarda,Manteigas,Manteigas (Santa Maria)
Manteigas,"Beiras FM - Radiodifusão e Publicidade, Unipessoal, Lda.",    104.400000,500.000,33.2926313568806,PENHAS DOURADAS,MANTEIGAS,M80 MANT,8000.000,N,Local,Não,,40.407222222,-7.568333333,40.405555556,-7.570833333,Sim,Guarda,Manteigas,Manteigas (São Pedro)
Marco de Canaveses,"Oficina de Video, Lda.",     88.500000,50.000,18.721822436302,ERMIDA - RESIDUAL,Penha Longa,MONTMURO,849C,S,Local,Sim,,41.105,-8.139166667,41.103888889,-8.141111111,Sim,Porto,Marco de Canaveses,Penhalonga e Paços de Gaiolo
Marinha Grande,"MG - Rádio e Comunicação da Marinha Grande, Lda.",     96.000000,1000.000,39.5918340867651,,ALTO DOS PICOTOS,RCM96-MG,80C7,N,Local,Não,,39.748333333,-8.989444444,39.748333333,-8.989444444,Não,Leiria,Marinha Grande,Marinha Grande
Marvão,"Rádio Renascença, Lda.",     95.300000,10000.000,70.4053433621716,SERRA SÃO MAMEDE,PORTALEGRE,RR,8221.000,S,Nacional,Não,Rede 1 de Cobertura Nacional,39.313333333,-7.359722222,39.313333333,-7.359722222,Sim,Portalegre,Marvão,São Salvador da Aramenha
Marvão,"Rádio Renascença, Lda.",    101.100000,10000.000,70.4053433621716,SERRA SÃO MAMEDE,PORTALEGRE,RFM,8231.000,S,Nacional,Não,Rede 2 de Cobertura Nacional,39.313333333,-7.359722222,39.313333333,-7.359722222,Sim,Portalegre,Marvão,São Salvador da Aramenha
Matosinhos,"NOTIMAIA - Publicações e Comunicação, Unipessoal, Lda.",     89.500000,1499.996,43.8155377411907,Rua Oslo,Senhora da Hora,SMOOTHMA,8009.000,N,Local,Não,,41.191666667,-8.651388889,41.191666667,-8.651666667,Sim,Porto,Matosinhos,São Mamede de Infesta e Senhora da Hora
Mealhada,"Rádio Província, Lda.",    100.800000,1000.000,39.5918340867651,CRUZ ALTA,SERRA DO BUÇACO,PROVNCIA,80F1,N,Local,Não,,40.372222222,-8.364444444,40.369722222,-8.363055556,Sim,Aveiro,Mealhada,Luso
Mealhada,"Rádio Clube Pampilhosa, C.R.L.",     92.600000,1000.000,39.5918340867651,SERRA DO BUÇACO,LUSO,RCP-92.6,8027.000,N,Local,Não,,40.369722222,-8.361944444,40.37,-8.363611111,Sim,Aveiro,Mealhada,Luso
Meda,"Rádio Clube da Meda, Lda.",     96.600000,500.000,33.2926313568806,Monte de Sta. Columba - Poço Canto,MEDA,MEDA FM,80D5,N,Local,Não,,40.993055556,-7.265,40.993055556,-7.265,Não,Guarda,Meda,"Mêda, Outeiro de Gatos e Fonte Longa"
Melgaço,"Associação Cultural, Recreativa e Desportiva INÊS NEGRA",     88.500000,500.000,33.2926313568806,AVENIDA DA BARBOSA,MELGAÇO,,,,Local,Não,,42.115,-8.250277778,42.115555556,-8.250555556,Sim,Viana do Castelo,Melgaço,Vila e Roussas
Mértola,"Rádio e Televisão de Portugal, S.A.",     90.900000,400.000,31.4862267474058,CERRO DE BENFICA,MÉRTOLA,ANTENA 1,8201.000,S,Nacional,Não,Rede 1 de Cobertura Nacional,37.641666667,-7.661111111,37.641666667,-7.660833333,Sim,Beja,Mértola,Mértola
Mértola,"Rádio e Televisão de Portugal, S.A.",     92.200000,400.000,31.4862267474058,CERRO DE BENFICA,MÉRTOLA,ANTENA 2,8202.000,S,Nacional,Não,Rede 2 de Cobertura Nacional,37.641666667,-7.661111111,37.641666667,-7.660833333,Sim,Beja,Mértola,Mértola
Mértola,"Rádio e Televisão de Portugal, S.A.",    100.100000,400.000,31.4862267474058,CERRO DE BENFICA,MÉRTOLA,ANTENA 3,8204.000,S,Nacional,Não,Rede 3 de Cobertura Nacional,37.641666667,-7.661111111,37.641666667,-7.660833333,Sim,Beja,Mértola,Mértola
Mértola,"Rádio Mértola, Lda.",     95.200000,500.000,33.2926313568806,"SERRA DE ALCARIA RUIVA, MÉRTOLA",ALCARIA RUIVA,RMERTOLA,84FB,S,Local,Não,,37.701666667,-7.766111111,37.701111111,-7.764722222,Sim,Beja,Mértola,Alcaria Ruiva
Mértola,"Rádio Mértola, Lda.",     95.000000,50.000,18.721822436302,CERRO DO BENFICA - DEPÓSITO DA ÁGUA,MÉRTOLA,RMERTOLA,84FB,S,Local,Sim,,37.641666667,-7.661111111,37.641388889,-7.660833333,Sim,Beja,Mértola,Mértola
Mértola,"Rádio Comercial, S.A.",     95.800000,400.000,31.4862267474058,CERRINHO DA ANTENA,Mértola,COMRCIAL,8203.000,S,Nacional,Não,Cobertura Nacional,37.6375,-7.656111111,37.637222222,-7.656111111,Sim,Beja,Mértola,Mértola
Miranda do Corvo,"Rádio Dueça - Informiranda, C.R.L.",     94.500000,500.000,33.2926313568806,SOURAVAS,VILA NOVA,,,,Local,Não,,40.038888889,-8.311388889,40.038888889,-8.313333333,Sim,Coimbra,Miranda do Corvo,Vila Nova
Miranda do Douro,"Rádio e Televisão de Portugal, S.A.",     90.300000,50.000,18.721822436302,Lameirão (Restolha),MIRANDA DO DOURO,ANTENA 1,8201.000,S,Nacional,Não,Rede 1 de Cobertura Nacional,41.497777778,-6.278055556,41.496388889,-6.284444444,Sim,Bragança,Miranda do Douro,Miranda do Douro
Miranda do Douro,"Rádio e Televisão de Portugal, S.A.",     95.700000,50.000,18.721822436302,Lameirão (Restolha),MIRANDA DO DOURO,ANTENA 2,8202.000,S,Nacional,Não,Rede 2 de Cobertura Nacional,41.497777778,-6.278055556,41.496388889,-6.284444444,Sim,Bragança,Miranda do Douro,Miranda do Douro
Miranda do Douro,"Rádio e Televisão de Portugal, S.A.",     98.900000,50.000,18.721822436302,Lameirão (Restolha),MIRANDA DO DOURO,ANTENA 3,8204.000,S,Nacional,Não,Rede 3 de Cobertura Nacional,41.497777778,-6.278055556,41.496388889,-6.284444444,Sim,Bragança,Miranda do Douro,Miranda do Douro
Mirandela,"SIT - Sociedade de Informação de Trás-os-Montes, Lda.",    105.200000,1000.000,39.5918340867651,SERRA DOS PASSOS,SOALHEIRO,T.QUENTE,8475.000,S,Local,Não,,41.463888889,-7.289166667,41.4625,-7.290277778,Sim,Bragança,Mirandela,Passos
Mirandela,"SIT - Sociedade de Informação de Trás-os-Montes, Lda.",    105.500000,50.000,18.721822436302,"AV. DOS BOMBEIROS VOLUNTÁRIOS, 47 S/L",MIRANDELA,T.QUENTE,8475.000,S,Local,Sim,,41.482777778,-7.176111111,41.483611111,-7.177222222,Sim,Bragança,Mirandela,Mirandela
Mogadouro,"Rádio Planalto, C.R.L.",     93.100000,1000.000,39.5918340867651,SERRA DA CASTANHEIRA,Castanheira,M80PNALT,809E,N,Local,Não,,41.392777778,-6.607222222,41.391666667,-6.606944444,Sim,Bragança,Mogadouro,"Brunhozinho, Castanheira e Sanhoane"
Moimenta da Beira,"Rádio Riba Távora, C.R.L.",     90.500000,1000.000,39.5918340867651,CARAPITO,ALDEIA DE NACOMBA,RRTAVORA,84C2,S,Local,Não,,40.950555556,-7.616944444,40.950555556,-7.616666667,Sim,Viseu,Moimenta da Beira,"Pêra Velha, Aldeia de Nacomba e Ariz"
Moimenta da Beira,"Rádio Riba Távora, C.R.L.",    100.400000,50.000,18.721822436302,CABAÇOS,Moimenta da Beira,RRTAVORA,84C2,S,Local,Sim,,41.026111111,-7.573888889,41.026111111,-7.573611111,Sim,Viseu,Moimenta da Beira,Cabaços
Moita,"BAOBAD - Comunicações e Publicações, S.A.",     96.200000,2000.000,47.0828907919883,QUINTA DE S. JOSÉ - ARROTEIAS,ALHOS VEDROS,ESTADIO,8041.000,N,Local,Não,,38.638333333,-9.005555556,38.638333333,-9.005555556,Não,Setúbal,Moita,Alhos Vedros
Moita,"R.C.C.I. - Rádio, Comunicação, Criatividade e Imagem, Lda.",     95.300000,1499.996,43.8155377411907,ALTO DO CARVALHINHO,MOITA,TROPICAL,8049.000,N,Local,Não,,38.656666667,-8.980555556,38.656666667,-8.980555556,Não,Setúbal,Moita,Moita
Moita,"Rádio Nacional - Emissões de Radiodifusão, Unipessoal, Lda.",    103.000000,2000.000,47.0828907919883,QUINTA DE S. JOSÉ - ARROTEIAS,ALHOS VEDROS,SMOOTH,802F,N,Local,Não,,38.638333333,-9.005555556,38.638333333,-9.005555556,Não,Setúbal,Moita,Alhos Vedros
Moita,"R.C. - Empresa de Radiodifusão, S.A.",    101.100000,1499.996,43.8155377411907,QUINTA DE S. JOSÉ - ARROTEIAS,ALHOS VEDROS,BEST FM,8073.000,N,Local,Não,,38.638333333,-9.005555556,38.638333333,-9.005555556,Não,Setúbal,Moita,Alhos Vedros
Monchique,"Rádio e Televisão de Portugal, S.A.",     88.900000,25000.000,88.5300323719002,ALTO DA FÓIA,MONCHIQUE,ANTENA 1,8201.000,S,Nacional,Não,Rede 1 de Cobertura Nacional,37.318055556,-8.589444444,37.318055556,-8.589444444,Não,Faro,Monchique,Monchique
Monchique,"Rádio e Televisão de Portugal, S.A.",     91.500000,25000.000,88.5300323719002,ALTO DA FÓIA,MONCHIQUE,ANTENA 2,8202.000,S,Nacional,Não,Rede 2 de Cobertura Nacional,37.318055556,-8.589444444,37.318055556,-8.589444444,Não,Faro,Monchique,Monchique
Monchique,"Rádio e Televisão de Portugal, S.A.",    101.900000,25000.000,88.5300323719002,ALTO DA FÓIA,MONCHIQUE,ANTENA 3,8204.000,S,Nacional,Não,Rede 3 de Cobertura Nacional,37.318055556,-8.589444444,37.318055556,-8.589444444,Não,Faro,Monchique,Monchique
Monchique,"Rádio Comercial, S.A.",     88.100000,10000.000,70.4053433621716,ALTO DA FÓIA,MONCHIQUE,COMRCIAL,8203.000,S,Nacional,Não,Cobertura Nacional,37.315277778,-8.589444444,37.315277778,-8.589444444,Não,Faro,Monchique,Monchique
Monchique,"Rádio Regional de Lisboa - Emissões de Radiodifusão, S.A.",    107.100000,10000.000,70.4053433621716,ALTO DA FOIA,MONCHIQUE,M80,8332.000,S,Regional,Não,Cobertura Regional Sul,37.315277778,-8.589444444,37.315277778,-8.589444444,Não,Faro,Monchique,Monchique
Monchique,"Rádio Renascença, Lda.",     98.600000,11999.966,73.688654167593,ALTO DA FÓIA,MONCHIQUE,RR,8221.000,S,Nacional,Não,Rede 1 de Cobertura Nacional,37.311666667,-8.597777778,37.311666667,-8.597777778,Não,Faro,Monchique,Monchique
Monchique,"Rádio Renascença, Lda.",    104.900000,11999.966,73.688654167593,ALTO DA FÓIA,MONCHIQUE,RFM,8231.000,S,Nacional,Não,Rede 2 de Cobertura Nacional,37.311666667,-8.597777778,37.311666667,-8.597777778,Não,Faro,Monchique,Monchique
Monchique,"Rádio Fóia, C.R.L.",     97.100000,500.000,33.2926313568806,ALTO DA FÓIA,MONCHIQUE,FOIA,80BE,N,Local,Não,,37.311666667,-8.597777778,37.315277778,-8.587222222,Sim,Faro,Monchique,Monchique
Monchique,"R.T.A. - Sociedade de Radiodifusão e Telecomunicações de Albufeira, Unipessoal, Lda.",     91.800000,2000.000,47.0828907919883,CERRO DO CALHAU DO CORVO,ALFERCE,RECORD A,809D,N,Local,Não,,37.315,-8.5025,37.315277778,-8.501944444,Sim,Faro,Monchique,Alferce
Montalegre,"INFOR-BARROSO - Informação, Lda.",     97.500000,500.000,33.2926313568806,CABESES DO RIO - MONTALEGRE,MONTE DO FACHO,MONTLEGR,8057.000,N,Local,Não,,41.793055556,-7.818055556,41.793055556,-7.818055556,Não,Vila Real,Montalegre,Montalegre e Padroso
Montemor-o-Novo,"Janela Indiscreta - Sociedade de Comunicação, Lda.",    101.300000,2000.000,47.0828907919883,CABEÇO DE SANTO ANDRÉ,MONTEMOR-O-NOVO,RNA-M,80.000,N,Local,Não,,38.669444444,-8.207777778,38.666944444,-8.209722222,Sim,Évora,Montemor-o-Novo,"N.S. da Vila, N.S. do Bispo e Silveiras"
Montemor-o-Velho,"RADIBELI - Produções Radiofónicas, Lda.",    101.700000,1000.000,39.5918340867651,TORRE CARAPINHEIRA,MONTEMOR-O-VELHO,BLITORAL,80F0,N,Local,Não,,40.201666667,-8.668611111,40.202222222,-8.668888889,Sim,Coimbra,Montemor-o-Velho,Montemor-o-Velho e Gatões
Montijo,"Som do Pinhal II - Multimédia, Unipessoal, Lda.",     90.900000,1499.996,43.8155377411907,R. UNIAO CL. JARDIENSE,JARDIA,POPULAR,8072.000,N,Local,Não,,38.665833333,-8.925,38.665833333,-8.925,Não,Setúbal,Montijo,Atalaia e Alto Estanqueiro-Jardia
Montijo,"CÔCO - Companhia de Comunicação, Lda.",    106.200000,1000.000,39.5918340867651,CAMPO FUTEBOL CLUBE JARDIENSE,MONTIJO,CIDADE T,8096.000,N,Local,Não,,38.665555556,-8.925,38.665555556,-8.925,Não,Setúbal,Montijo,Atalaia e Alto Estanqueiro-Jardia
Moura,"SEB - Sociedade Editorial Bética, Lda.",     92.800000,500.000,33.2926313568806,DEPOSITO DE AGUA,MOURA,RP-MOURA,8008.000,N,Local,Não,,38.138888889,-7.447777778,38.135555556,-7.447777778,Sim,Beja,Moura,Santo Agostinho e São João Baptista e Santo Amador
Mourão,"Rádio Corval, CRL",     96.200000,500.000,33.2926313568806,BALDIO DE VALE DE LAPA,MOURÃO,ALENTEJO,80D9,N,Local,Não,,38.385277778,-7.346111111,38.380555556,-7.349722222,Sim,Évora,Mourão,Mourão
Murtosa,"Saldida F.M. - Rádio, Informação e Cultura, C.R.L.",     98.100000,500.000,33.2926313568806,ESTRADA DA VARELA - DEPÓSITO DA ÁGUA,MURTOSA,SFM,80AA,N,Local,Não,,40.760833333,-8.643333333,40.760833333,-8.643333333,Sim,Aveiro,Murtosa,Bunheiro
Nazaré,"Meia Maratona Internacional da Nazaré, Associação de Cultura e Desporto",    100.600000,1000.000,39.5918340867651,B URBISOL LT 37/38,NAZARÉ,NAZAREFM,806E,N,Local,Não,,39.605555556,-9.070833333,39.605833333,-9.069444444,Sim,Leiria,Nazaré,Nazaré
Nelas,"Rádio Amador de Canas de Senhorim, C.R.L.",     96.800000,1000.000,39.5918340867651,TORRE DA TMN - ZONA DESPORTIVA DE NELAS,NELAS,WWW968FM,8063.000,N,Local,Não,,40.542222222,-7.844444444,40.540833333,-7.845833333,Sim,Viseu,Nelas,Nelas
Nordeste,"Rádio e Televisão de Portugal, S.A.",    104.600000,100.000,22.2641244470679,SÃO MIGUEL,NORDESTE,,,,Nacional,Não,Rede 1 de Cobertura Nacional,37.835277778,-25.161944444,37.835277778,-25.161944444,Não,Açores São Miguel,Nordeste,Lomba da Fazenda
Nordeste,"Rádio e Televisão de Portugal, S.A.",     92.700000,1000.000,39.5918340867651,SÂO MIGUEL,PICO BARTOLOMEU,,,,Nacional,Não,Rede 1 de Cobertura Nacional,37.778333333,-25.169444444,37.778333333,-25.169444444,Não,Açores São Miguel,Nordeste,Nordeste
Nordeste,"Rádio e Televisão de Portugal, S.A.",    103.700000,1000.000,39.5918340867651,NORDESTINHO,NORDESTINHO - ALGARVIA,,,,Nacional,Não,Rede 1 de Cobertura Nacional,37.85,-25.231388889,37.851388889,-25.231111111,Sim,Açores São Miguel,Nordeste,Algarvia
Nordeste,"Rádio e Televisão de Portugal, S.A.",     89.900000,500.000,33.2926313568806,SÃO MIGUEL,PICO BARTOLOMEU,,,,Nacional,Não,Rede 2 de Cobertura Nacional,37.778333333,-25.169444444,37.778333333,-25.169444444,Não,Açores São Miguel,Nordeste,Nordeste
Nordeste,"Rádio e Televisão de Portugal, S.A.",     91.800000,1000.000,39.5918340867651,NORDESTINHO,NORDESTINHO - ALGARVIA,,,,Nacional,Não,Rede 2 de Cobertura Nacional,37.85,-25.231388889,37.851388889,-25.231111111,Sim,Açores São Miguel,Nordeste,Algarvia
Nordeste,"Rádio e Televisão de Portugal, S.A.",     99.100000,1000.000,39.5918340867651,SÃO MIGUEL,PICO BARTOLOMEU,,,,Nacional,Não,Rede 3 de Cobertura Nacional,37.778333333,-25.169444444,37.778333333,-25.169444444,Não,Açores São Miguel,Nordeste,Nordeste
Nordeste,"Rádio e Televisão de Portugal, S.A.",     95.800000,100.000,22.2641244470679,SÃO MIGUEL,NORDESTE,,,,Nacional,Não,Rede 2 de Cobertura Nacional,37.835277778,-25.161944444,37.835277778,-25.161944444,Não,Açores São Miguel,Nordeste,Lomba da Fazenda
Nordeste,"Rádio e Televisão de Portugal, S.A.",     88.000000,100.000,22.2641244470679,SÃO MIGUEL,NORDESTE,,,,Nacional,Não,Rede 3 de Cobertura Nacional,37.835277778,-25.161944444,37.835277778,-25.161944444,Não,Açores São Miguel,Nordeste,Lomba da Fazenda
Nordeste,"Costa & Osório, Unipessoal, Lda.",     91.500000,50.000,18.721822436302,PEDREIRA - SÃO MIGUEL,PICO BARTOLOMEU,CANAL FM,847F,S,Local,Sim,,37.778055556,-25.168611111,37.778055556,-25.168611111,Não,Açores São Miguel,Nordeste,Nordeste
